"시설번호",시설유형코드,시도명,시군구명,시군구코드,소재지도로명주소,소재지지번주소,위도,경도,상세위치,안전센터명,보호틀유무,사용가능여부,설치연도,배관깊이,출수압력,배관지름,관할기관명,관할기관전화번호,데이터기준일자
"자인 지상 제007호",1,경상북도,경산시,47290,경상북도 경산시 자인면 설총로 895,경상북도 경산시 자인면 동부리 150-4,35.816196,128.826019,시외버스터미널 맞은편 평강이용소 앞,자인119안전센터,Y,Y,2001,0.5,2,63.5,경산소방서,053-819-6257,2021-11-30
"중앙 지상 제107호",1,경상북도,경산시,47290,경상북도 경산시 백양로 101,경상북도 경산시 사동 607-11,35.814091,128.753084,오리일번지 앞,중앙119안전센터,Y,Y,2018,0.5,2,65,경산소방서,053-819-6257,2021-11-30
"중앙 지상 제061호",1,경상북도,경산시,47290,경상북도 경산시 솔숲길 100,경상북도 경산시 평산동 695,35.808484,128.761654,사동휴먼시아2단지 201동 앞,중앙119안전센터,N,Y,2000,0.5,2,65,경산소방서,053-819-6257,2021-11-30
"중앙 지상 제068호",1,경상북도,경산시,47290,경상북도 경산시 솔숲길3길 3-1,경상북도 경산시 사동 204,35.807462,128.753209,도로 건너,중앙119안전센터,N,Y,2009,0.5,2,65,경산소방서,053-819-6257,2021-11-30
"중앙 지상 제072호",1,경상북도,경산시,47290,경상북도 경산시 백자로10길 55,경상북도 경산시 사동 180,35.808156,128.759003,사동휴먼시아1단지 110동 앞,중앙119안전센터,N,Y,2009,0.5,2,65,경산소방서,053-819-6257,2021-11-30
"중앙 지상 제076호",1,경상북도,경산시,47290,경상북도 경산시 백양로32길 11,경상북도 경산시 사동 162,35.810217,128.758301,우리떡집,중앙119안전센터,N,Y,2008,0.5,2,65,경산소방서,053-819-6257,2021-11-30
"중앙 지상 제085호",1,경상북도,경산시,47290,경상북도 경산시 백자로10길 3-11,경상북도 경산시 사동 39,35.811436,128.754781,밝은약국 앞,중앙119안전센터,N,Y,2008,0.5,2,65,경산소방서,053-819-6257,2021-11-30
"중앙 지상 제086호",1,경상북도,경산시,47290,경상북도 경산시 백자로10길 1,경상북도 경산시 사동 43,35.81072987,128.754028,쌍둥이안경,중앙119안전센터,N,Y,2008,0.5,2,65,경산소방서,053-819-6257,2021-11-30
"중앙 지상 제095호",1,경상북도,경산시,47290,경상북도 경산시 삼성현로91길 45,경상북도 경산시 사동 21,35.812245,128.753292,파크드림 105동 앞 도로 건너 백자로 솔숲구릉공원 앞,중앙119안전센터,N,N,2010,0.5,2,65,경산소방서,053-819-6257,2021-11-30
"중앙 지상 제136호",1,경상북도,경산시,47290,경상북도 경산시 경청로221길 5,경상북도 경산시 백천동 574-1,35.80418978,128.738386,월드메르디앙 정문 맞은편,중앙119안전센터,N,Y,2017,0.5,2,65,경산소방서,053-819-6257,2021-11-30
"중앙 지상 제053호",1,경상북도,경산시,47290,경상북도 경산시 원효로 110,경상북도 경산시 계양동 660,35.822492,128.749597,조은카서비스 앞,중앙119안전센터,Y,Y,2009,0.5,2,65,경산소방서,053-819-6257,2021-11-30
"중앙 지상 제075호",1,경상북도,경산시,47290,경상북도 경산시 점촌길 19-7,경상북도 경산시 점촌동 208,35.801169,128.771417,점촌네거리 버스정류장 옆,중앙119안전센터,Y,Y,2015,0.5,2,65,경산소방서,053-819-6257,2021-11-30
"중앙 지상 제073호",1,경상북도,경산시,47290,경상북도 경산시 백자로10길 55,경상북도 경산시 사동 180,35.808156,128.759003,사동휴먼시아1단지 109동 앞,중앙119안전센터,N,Y,2009,0.5,2,65,경산소방서,053-819-6257,2021-11-30
"중앙 지상 제074호",1,경상북도,경산시,47290,경상북도 경산시 백자로10길 55,경상북도 경산시 사동 180,35.808156,128.759003,사동휴먼시아1단지 108동 앞,중앙119안전센터,N,Y,2009,0.5,2,65,경산소방서,053-819-6257,2021-11-30
"중앙 지상 제077호",1,경상북도,경산시,47290,경상북도 경산시 백양로34길 2,경상북도 경산시 사동 150,35.810902,128.758881,김세미헤어 우측,중앙119안전센터,N,Y,2008,0.5,2,65,경산소방서,053-819-6257,2021-11-30
"중앙 지상 제081호",1,경상북도,경산시,47290,경상북도 경산시 백자로10길 11,경상북도 경산시 사동 148,35.80930032,128.756807,사동부영6차 606동 앞,중앙119안전센터,N,Y,2008,0.5,2,65,경산소방서,053-819-6257,2021-11-30
"중앙 지상 제083호",1,경상북도,경산시,47290,경상북도 경산시 백자로10길 11,경상북도 경산시 사동 148,35.80930032,128.756807,사동부영6차 605동 앞,중앙119안전센터,N,Y,2021,0.5,2,65,경산소방서,053-819-6257,2021-11-30
"중앙 지상 제084호",1,경상북도,경산시,47290,경상북도 경산시 백자로 76,경상북도 경산시 사동 36,35.812288,128.755561,W-TOWER 건물앞,중앙119안전센터,N,Y,2008,0.5,2,65,경산소방서,053-819-6257,2021-11-30
"중앙 지상 제087호",1,경상북도,경산시,47290,경상북도 경산시 백자로10길 11,경상북도 경산시 사동 148,35.80930032,128.756807,사동부영6차 601동 앞,중앙119안전센터,N,Y,2008,0.5,2,65,경산소방서,053-819-6257,2021-11-30
"중앙 지상 제088호",1,경상북도,경산시,47290,경상북도 경산시 백자로10길 11,경상북도 경산시 사동 148,35.80930032,128.756807,사동부영6차 610동 앞,중앙119안전센터,N,Y,2008,0.5,2,65,경산소방서,053-819-6257,2021-11-30
"중앙 지상 제089호",1,경상북도,경산시,47290,경상북도 경산시 백자로10길 11,경상북도 경산시 사동 148,35.80930032,128.756807,사동부영6차 621동 앞,중앙119안전센터,N,Y,2008,0.5,2,65,경산소방서,053-819-6257,2021-11-30
"중앙 지상 제090호",1,경상북도,경산시,47290,경상북도 경산시 백자로10길 57,경상북도 경산시 사동 180,35.807992,128.759786,사동휴먼시아1단지 102동 앞,중앙119안전센터,N,Y,2009,0.5,2,65,경산소방서,053-819-6257,2021-11-30
"중앙 지상 제096호",1,경상북도,경산시,47290,경상북도 경산시 삼성현로91길 45,경상북도 경산시 사동 21,35.812245,128.753292,파크드림 102동 앞 도로 건너 솔숲구릉공원 족구장 앞,중앙119안전센터,N,N,2010,0.5,2,65,경산소방서,053-819-6257,2021-11-30
"중앙 지상 제100호",1,경상북도,경산시,47290,경상북도 경산시 삼성현로91길 36,경상북도 경산시 사동 296,35.809036,128.751408,삼성현로91길 36 사동고등학교 정문 우측 30m,중앙119안전센터,N,N,2010,0.5,2,65,경산소방서,053-819-6257,2021-11-30
"중앙 지상 제101호",1,경상북도,경산시,47290,경상북도 경산시 삼성현로91길 36,경상북도 경산시 사동 296,35.809036,128.751408,삼성현로91길 36 사동고등학교 정문 우측 130m,중앙119안전센터,N,Y,2010,0.5,2,65,경산소방서,053-819-6257,2021-11-30
"중앙 지상 제102호",1,경상북도,경산시,47290,경상북도 경산시 삼성현로91길 36,경상북도 경산시 사동 296,35.809036,128.751408,삼성현로91길 36 사동고등학교 정문 우측 250m,중앙119안전센터,N,Y,2010,0.5,2,65,경산소방서,053-819-6257,2021-11-30
"중앙 지상 제116호",1,경상북도,경산시,47290,경상북도 경산시 남매로 100,경상북도 경산시 상방동 10,35.821117,128.743773,주경기장 동쪽과 옥외1화장실 사이,중앙119안전센터,N,Y,2021,0.5,2,65,경산소방서,053-819-6257,2021-11-30
"중앙 지상 제117호",1,경상북도,경산시,47290,경상북도 경산시 남매로 100,경상북도 경산시 상방동 10,35.821117,128.743773,주경기장 남쪽입구,중앙119안전센터,N,Y,2021,0.5,2,65,경산소방서,053-819-6257,2021-11-30
"중앙 지상 제118호",1,경상북도,경산시,47290,경상북도 경산시 남매로 100,경상북도 경산시 상방동 10,35.821117,128.743773,주경기장 남쪽과 옥외3화장실 사이,중앙119안전센터,N,Y,2021,0.5,2,65,경산소방서,053-819-6257,2021-11-30
"중앙 지상 제119호",1,경상북도,경산시,47290,경상북도 경산시 남매로 100,경상북도 경산시 상방동 10,35.821117,128.743773,남쪽 어귀마당과 매표소 사이,중앙119안전센터,N,Y,2021,0.5,2,65,경산소방서,053-819-6257,2021-11-30
"중앙 지상 제120호",1,경상북도,경산시,47290,경상북도 경산시 남매로 100,경상북도 경산시 상방동 10,35.821117,128.743773,주경기장 매표소 뒤,중앙119안전센터,N,Y,2021,0.5,2,65,경산소방서,053-819-6257,2021-11-30
"중앙 지상 제121호",1,경상북도,경산시,47290,경상북도 경산시 남매로 100,경상북도 경산시 상방동 10,35.821117,128.743773,주경기장 서편과 푸른마당 사이,중앙119안전센터,N,Y,2021,0.5,2,65,경산소방서,053-819-6257,2021-11-30
"중앙 지상 제122호",1,경상북도,경산시,47290,경상북도 경산시 남매로 100,경상북도 경산시 상방동 10,35.821117,128.743773,주경기장과 물소리야외무대 사이,중앙119안전센터,N,Y,2021,0.5,2,65,경산소방서,053-819-6257,2021-11-30
"중앙 지상 제123호",1,경상북도,경산시,47290,경상북도 경산시 남매로 100,경상북도 경산시 상방동 10,35.821117,128.743773,주경기장과 버들여울 사이,중앙119안전센터,N,Y,2021,0.5,2,65,경산소방서,053-819-6257,2021-11-30
"중앙 지상 제125호",1,경상북도,경산시,47290,경상북도 경산시 남매로 100,경상북도 경산시 상방동 10,35.821178,128.743773,주경기장 북쪽과 열린마당 사이,중앙119안전센터,Y,Y,2021,0.5,2,65,경산소방서,053-819-6257,2021-11-30
"중앙 지상 제126호",1,경상북도,경산시,47290,경상북도 경산시 남매로 100,경상북도 경산시 상방동 10,35.821117,128.743773,실내체육관 매표소 사이,중앙119안전센터,Y,Y,2021,0.5,2,65,경산소방서,053-819-6257,2021-11-30
"중앙 지상 제022호",1,경상북도,경산시,47290,경상북도 경산시 원효로 187,경상북도 경산시 삼풍동 520-3,35.819506,128.757254,GS25 대각선 건너편,중앙119안전센터,N,Y,2001,0.5,2,65,경산소방서,053-819-6257,2021-11-30
"하양 지상 제022호",1,경상북도,경산시,47290,경상북도 경산시 하양읍 대경로147길 13-1,경상북도 경산시 하양읍 금락리 135-34,35.912907,128.819975,석쇠불고기 옆 모퉁이,하양119안전센터,Y,Y,1997,0.5,2,65,경산소방서,053-819-6257,2021-11-30
"하양 지상 제023호",1,경상북도,경산시,47290,경상북도 경산시 하양읍 대경로147길 8,경상북도 경산시 하양읍 금락리 135-188,35.912479,128.820359,하양초등학교 북문 옆,하양119안전센터,N,Y,2003,0.5,2,100,경산소방서,053-819-6257,2021-11-30
"하양 지상 제021호",1,경상북도,경산시,47290,경상북도 경산시 하양읍 대학로 1517,경상북도 경산시 하양읍 금락리 135-159,35.91339007,128.821214,대구은행 앞 공중전화 부스 옆,하양119안전센터,Y,Y,2002,0.5,2,65,경산소방서,053-819-6257,2021-11-30
"하양 지상 제053호",1,경상북도,경산시,47290,경상북도 경산시 하양읍 한사길4길 2,경상북도 경산시 하양읍 한사리 524-8,35.925675,128.822961,마을회관 전봇대 옆,하양119안전센터,N,Y,2006,0.5,2,65,경산소방서,053-819-6257,2021-11-30
"하양 지상 제037호",1,경상북도,경산시,47290,경상북도 경산시 하양읍 하양로27길 5,경상북도 경산시 하양읍 금락리 35-4,35.915286,128.821033,동산사우나 우측 담벼락 끝부분,하양119안전센터,N,Y,1995,0.5,2,65,경산소방서,053-819-6257,2021-11-30
"하양 지상 제034호",1,경상북도,경산시,47290,경상북도 경산시 하양읍 하양로27길 10,경상북도 경산시 하양읍 금락리 35-35,35.915633,128.8205903,이불세상 맞은편,하양119안전센터,Y,Y,2013,0.5,2,65,경산소방서,053-819-6257,2021-11-30
"하양 지상 제045호",1,경상북도,경산시,47290,경상북도 경산시 하양읍 금송로 52,경상북도 경산시 하양읍 동서리 630-6,35.917296,128.818593,건영택배 앞,하양119안전센터,Y,Y,2003,0.5,2,65,경산소방서,053-819-6257,2021-11-30
"하양 지상 제075호",1,경상북도,경산시,47290,경상북도 경산시 와촌면 팔공로 600,경상북도 경산시 와촌면 박사리 213-5,35.95669988,128.807675,갓바위방향 양곡리 입구 신호등  인근,하양119안전센터,N,Y,2009,0.5,2,65,경산소방서,053-819-6257,2021-11-30
"하양 지상 제032호",1,경상북도,경산시,47290,경상북도 경산시 하양읍 하양로 131,경상북도 경산시 하양읍 금락리 35-13,35.915153,128.821198,영플라워 꽃집 앞 인도상,하양119안전센터,Y,Y,2017,0.5,2,65,경산소방서,053-819-6257,2021-11-30
"하양 지상 제002호",1,경상북도,경산시,47290,경상북도 경산시 하양읍 대경로 120,경상북도 경산시 하양읍 청천리 464-2,35.880302,128.767311,청천역 정문,하양119안전센터,N,Y,2007,0.5,2,65,경산소방서,053-819-6257,2021-11-30
"하양 지상 제006호",1,경상북도,경산시,47290,경상북도 경산시 하양읍 환상1길 3,경상북도 경산시 하양읍 환상리 501,35.874004,128.780422,수원농원 정문,하양119안전센터,N,Y,2010,0.5,2,65,경산소방서,053-819-6257,2021-11-30
"하양 지상 제008호",1,경상북도,경산시,47290,경상북도 경산시 하양읍 화성로 171,경상북도 경산시 하양읍 환상리 75-1,35.886064,128.790326,하양초 화성분교 정문,하양119안전센터,N,Y,2010,0.5,2,65,경산소방서,053-819-6257,2021-11-30
"하양 지상 제009호",1,경상북도,경산시,47290,경상북도 경산시 하양읍 화성로 233,경상북도 경산시 하양읍 대조리 850-5,35.889544,128.794791,운동장진입 좌측 인도 (버스정류장 인근),하양119안전센터,N,Y,2010,0.5,2,65,경산소방서,053-819-6257,2021-11-30
"하양 지상 제007호",1,경상북도,경산시,47290,경상북도 경산시 하양읍 화성로 140,경상북도 경산시 하양읍 환상리 238-5,35.882645,128.789073,거평산업 맞은편,하양119안전센터,N,N,2010,0.5,2,65,경산소방서,053-819-6257,2021-11-30
"하양 지상 제051호",1,경상북도,경산시,47290,경상북도 경산시 하양읍 금송로 139,경상북도 경산시 하양읍 동서리 430,35.924018,128.823509,미래주유소 횡단보도 건너편,하양119안전센터,N,Y,2006,0.5,2,100,경산소방서,053-819-6257,2021-11-30
"하양 지하 제07호",2,경상북도,경산시,47290,경상북도 경산시 하양읍 금송로 72,경상북도 경산시 하양읍 동서리 611-10,35.918782,128.819922,"하양성당 입구(무학서점 앞), 하양지상50호 인근",하양119안전센터,N,Y,1995,0.5,2,65,경산소방서,053-819-6257,2021-11-30
"하양 지상 제044호",1,경상북도,경산시,47290,경상북도 경산시 하양읍 도리1길 11,경상북도 경산시 하양읍 도리리 108-28,35.917931,128.817299,하양포교당 골목(비상소화전함 같이 있음),하양119안전센터,N,Y,2014,0.5,2,65,경산소방서,053-819-6257,2021-11-30
"하양 지상 제047호",1,경상북도,경산시,47290,경상북도 경산시 하양읍 동서3길 23-1,경상북도 경산시 하양읍 동서리 591-28,35.917477,128.820836,수련유치원 입구,하양119안전센터,N,Y,2014,0.5,2,65,경산소방서,053-819-6257,2021-11-30
"하양 지상 제059호",1,경상북도,경산시,47290,경상북도 경산시 와촌면 대경로 952,경상북도 경산시 와촌면 용천리 881,35.922656,128.840728,우주충전소 옆,하양119안전센터,N,Y,2009,0.5,2,65,경산소방서,053-819-6257,2021-11-30
"하양 지상 제061호",1,경상북도,경산시,47290,경상북도 경산시 와촌면 금송로 396,경상북도 경산시 와촌면 덕촌리 252,35.944509,128.835703,탑마트 맞은편 인도,하양119안전센터,N,Y,2009,0.5,2,65,경산소방서,053-819-6257,2021-11-30
"하양 지상 제085호",1,경상북도,경산시,47290,경상북도 경산시 와촌면 금송로 393,경상북도 경산시 와촌면 소월리 35-1,35.944446,128.835273,와촌교회 입구,하양119안전센터,Y,Y,2019,0.5,2,65,경산소방서,053-819-6257,2021-11-30
"하양 지상 제064호",1,경상북도,경산시,47290,경상북도 경산시 와촌면 금송로 430,경상북도 경산시 와촌면 덕촌리 42,35.947728,128.836773,와촌인터체인지 SK주유소 인근,하양119안전센터,N,Y,2009,0.5,2,65,경산소방서,053-819-6257,2021-11-30
"하양 지상 제065호",1,경상북도,경산시,47290,경상북도 경산시 와촌면 금송로 464,경상북도 경산시 와촌면 동강리 97-1,35.950545,128.836411,와촌초교에서 청통방향 인도상,하양119안전센터,N,Y,2009,0.5,2,65,경산소방서,053-819-6257,2021-11-30
"하양 지상 제066호",1,경상북도,경산시,47290,경상북도 경산시 와촌면 박사강변로 224,경상북도 경산시 와촌면 소월리 955,35.961951,128.820372,소월1교 가기전 왼쪽,하양119안전센터,N,Y,2009,0.5,2,65,경산소방서,053-819-6257,2021-11-30
"하양 지상 제069호",1,경상북도,경산시,47290,경상북도 경산시 와촌면 갓바위로10길 3,경상북도 경산시 와촌면 대한리 45,35.962515,128.791479,잼스모텔 인근,하양119안전센터,N,Y,2009,0.5,2,65,경산소방서,053-819-6257,2021-11-30
"하양 지상 제073호",1,경상북도,경산시,47290,경상북도 경산시 와촌면 박사길 24,경상북도 경산시 와촌면 박사리 663-1,35.95944959,128.806789,박사리 회관 가는 방향 오른쪽,하양119안전센터,N,Y,2009,0.5,2,65,경산소방서,053-819-6257,2021-11-30
"하양 지상 제074호",1,경상북도,경산시,47290,경상북도 경산시 와촌면 양곡길 3,경상북도 경산시 와촌면 소월리 1405-2,35.955781,128.811864,양곡리 입구 상,하양119안전센터,Y,Y,2009,0.5,2,65,경산소방서,053-819-6257,2021-11-30
"하양 지상 제071호",1,경상북도,경산시,47290,경상북도 경산시 와촌면 갓바위로 73,경상북도 경산시 와촌면 대한리 89,35.964968,128.790414,곤드레돌솥약손밥 앞,하양119안전센터,N,Y,2012,0.5,2,65,경산소방서,053-819-6257,2021-11-30
"하양 지상 제070호",1,경상북도,경산시,47290,경상북도 경산시 와촌면 갓바위로 153-1,경상북도 경산시 와촌면 대한리 168-3,35.970742,128.786881,참새미골 식당 앞,하양119안전센터,Y,Y,2009,0.5,2,65,경산소방서,053-819-6257,2021-11-30
"하양 지상 제072호",1,경상북도,경산시,47290,경상북도 경산시 와촌면 음양길 54,경상북도 경산시 와촌면 음양리 288,35.957274,128.759598,음양리회관 앞,하양119안전센터,N,Y,2008,0.5,2,65,경산소방서,053-819-6257,2021-11-30
"하양 지상 제084호",1,경상북도,경산시,47290,경상북도 경산시 와촌면 하양로 384,경상북도 경산시 와촌면 시천리 413-3,35.923206,128.846019,3M 광택집 앞,하양119안전센터,N,Y,2019,0.5,2,65,경산소방서,053-819-6257,2021-11-30
"하양 지상 제057호",1,경상북도,경산시,47290,경상북도 경산시 와촌면 용천길5길 25,경상북도 경산시 와촌면 계당리 802-12,35.919849,128.850047,영진산업사 입구,하양119안전센터,Y,Y,2009,0.5,2,65,경산소방서,053-819-6257,2021-11-30
"하양 지상 제062호",1,경상북도,경산시,47290,경상북도 경산시 와촌면 금송로 416,경상북도 경산시 와촌면 덕촌리 57-1,35.946245,128.836851,와촌면 행정복지센터 입구,하양119안전센터,N,Y,2008,0.5,2,65,경산소방서,053-819-6257,2021-11-30
"하양 지상 제067호",1,경상북도,경산시,47290,경상북도 경산시 와촌면 대동공단길 26,경상북도 경산시 와촌면 대동리 289-27,35.972328,128.805421,대동공단내,하양119안전센터,N,Y,2009,0.5,2,65,경산소방서,053-819-6257,2021-11-30
"하양 지상 제068호",1,경상북도,경산시,47290,경상북도 경산시 와촌면 한골길 4,경상북도 경산시 와촌면 대동리 554,35.97979951,128.793823,대동1리 회관 앞,하양119안전센터,Y,Y,2009,0.5,2,65,경산소방서,053-819-6257,2021-11-30
"하양 지상 제076호",1,경상북도,경산시,47290,경상북도 경산시 와촌면 계당길 73,경상북도 경산시 와촌면 계당리 685-9,35.93107043,128.849326,협동교 지나 20m,하양119안전센터,N,Y,2010,0.5,2,65,경산소방서,053-819-6257,2021-11-30
"하양 지상 제026호",1,경상북도,경산시,47290,경상북도 경산시 하양읍 하양역길 22,경상북도 경산시 하양읍 금락리 116-31,35.911226,128.816408,스크린골프장 휀스(서래갈매기살 정문 건너편),하양119안전센터,Y,Y,2007,0.5,2,100,경산소방서,053-819-6257,2021-11-30
"중산 저수 제001호",4,경상북도,경산시,47290,경상북도 경산시 강변서로51길 22,경상북도 경산시 정평동 230-34,35.830354,128.729424,"정평동, 델타약국 앞",중산119안전센터,N,Y,1998,0.5,2,65,경산소방서,053-819-6257,2021-11-30
"중산 지상 제010호",1,경상북도,경산시,47290,경상북도 경산시 장산로4길 10,경상북도 경산시 옥곡동 85-1,35.814858,128.726683,측면 어린이 공원앞 인도,중산119안전센터,N,Y,2010,0.5,2,65,경산소방서,053-819-6257,2021-11-30
"중산 지상 제011호",1,경상북도,경산시,47290,경상북도 경산시 장산로4길 10,경상북도 경산시 옥곡동 85-1,35.814858,128.726683,신동아104동 정문에서 좌측,중산119안전센터,N,Y,2010,0.5,2,65,경산소방서,053-819-6257,2021-11-30
"중산 지상 제012호",1,경상북도,경산시,47290,경상북도 경산시 장산로4길 10,경상북도 경산시 옥곡동 85-1,35.814858,128.726683,114동 모서리 부근,중산119안전센터,N,Y,2010,0.5,2,65,경산소방서,053-819-6257,2021-11-30
"중산 지상 제067호",1,경상북도,경산시,47290,경상북도 경산시 강변서로 17,경상북도 경산시 옥곡동 832-1,35.810047,128.735865,부영3차 306동 옆 인도상,중산119안전센터,N,Y,2003,0.5,2,65,경산소방서,053-819-6257,2021-11-30
"중산 지상 제013호",1,경상북도,경산시,47290,경상북도 경산시 장산로4길 10,경상북도 경산시 옥곡동 85-1,35.814858,128.726683,116동 외벽앞 인도,중산119안전센터,Y,Y,2010,0.5,2,65,경산소방서,053-819-6257,2021-11-30
"중산 지상 제008호",1,경상북도,경산시,47290,경상북도 경산시 옥실길 2-8,경상북도 경산시 옥곡동 86-15,35.815533,128.728754,"신명축산 앞, 지하차도 위",중산119안전센터,N,Y,2010,0.5,2,65,경산소방서,053-819-6257,2021-11-30
"중산 지상 제020호",1,경상북도,경산시,47290,경상북도 경산시 선비길 16,경상북도 경산시 옥곡동 34,35.816772,128.726705,중부교회 정문 앞,중산119안전센터,Y,Y,2006,0.5,1.5,65,경산소방서,053-819-6257,2021-11-30
"진량 지상 제003호",1,경상북도,경산시,47290,경상북도 경산시 진량읍 대구대로 87-1,경상북도 경산시 진량읍 상림리 196-1,35.90136985,128.833305,천지노래방 앞,진량119안전센터,N,Y,2013,0.5,1.8,65,경산소방서,053-819-6257,2021-11-30
"진량 지상 제002호",1,경상북도,경산시,47290,경상북도 경산시 진량읍 대구대로 201,경상북도 경산시 진량읍 내리리 15,35.904539,128.842813,대구대서문,진량119안전센터,N,Y,2015,0.5,1.8,65,경산소방서,053-819-6257,2021-11-30
"하양 지상 제049호",1,경상북도,경산시,47290,경상북도 경산시 하양읍 동서3길 8,경상북도 경산시 하양읍 동서리 614-1,35.91908987,128.820735,동성가스 창고앞,하양119안전센터,Y,Y,2017,0.5,1.8,100,경산소방서,053-819-6257,2021-11-30
"하양 지상 제063호",1,경상북도,경산시,47290,경상북도 경산시 와촌면 금송로 419,경상북도 경산시 와촌면 소월리 22,35.946636,128.835942,와촌파출소 앞 도로변,하양119안전센터,N,Y,1997,0.5,1.8,100,경산소방서,053-819-6257,2021-11-30
"하양 지상 제043호",1,경상북도,경산시,47290,경상북도 경산시 하양읍 하양양지길 82,경상북도 경산시 하양읍 양지리 162-3,35.923655,128.803757,새마을회관 앞 전봇대인근,하양119안전센터,N,Y,2006,0.5,2,100,경산소방서,053-819-6257,2021-11-30
"하양 지상 제046호",1,경상북도,경산시,47290,경상북도 경산시 하양읍 동서길 17,경상북도 경산시 하양읍 동서리 591-50,35.917041,128.820223,애니노래방,하양119안전센터,N,Y,2007,0.5,2,100,경산소방서,053-819-6257,2021-11-30
"하양 지상 제030호",1,경상북도,경산시,47290,경상북도 경산시 하양읍 대경로 793,경상북도 경산시 하양읍 동서리 752-2,35.915138,128.825772,하양119안전센터(소화전),하양119안전센터,N,Y,2018,0.5,2,100,경산소방서,053-819-6257,2021-11-30
"하양 지상 제080호",1,경상북도,경산시,47290,경상북도 경산시 하양읍 금송로 59,경상북도 경산시 하양읍 동서리 606-1,35.918017,128.818802,무학크리닝,하양119안전센터,Y,Y,2018,0.5,2,100,경산소방서,053-819-6257,2021-11-30
"하양 지상 제058호",1,경상북도,경산시,47290,경상북도 경산시 와촌면 용천길 23,경상북도 경산시 와촌면 계당리 790,35.922297,128.848573,대한사료,하양119안전센터,Y,Y,1995,0.5,2,100,경산소방서,053-819-6257,2021-11-30
"중산 지상 제025호",1,경상북도,경산시,47290,경상북도 경산시 중앙로4길 7,경상북도 경산시 사정동 301-13,35.81990035,128.730239,경산비전교회 앞,중산119안전센터,Y,Y,2006,0.5,2,65,경산소방서,053-819-6257,2021-11-30
"진량 지상 제001호",1,경상북도,경산시,47290,경상북도 경산시 진량읍 대학로 1298,경상북도 경산시 진량읍 부기리 343,35.891741,128.824915,코오롱정문앞,진량119안전센터,N,Y,2003,0.5,2.1,65,경산소방서,053-819-6257,2021-11-30
"진량 지상 제031호",1,경상북도,경산시,47290,경상북도 경산시 진량읍 공단7로 93,경상북도 경산시 진량읍 신제리 528,35.865453,128.832014,대한볼트사거리,진량119안전센터,N,Y,2010,0.5,2.1,65,경산소방서,053-819-6257,2021-11-30
"진량 지상 제036호",1,경상북도,경산시,47290,경상북도 경산시 진량읍 신제1길 2,경상북도 경산시 진량읍 신제리 165-2,35.865486,128.838375,제다공장 뒤편도로 인도,진량119안전센터,N,Y,2010,0.5,2.1,65,경산소방서,053-819-6257,2021-11-30
"하양 지상 제052호",1,경상북도,경산시,47290,경상북도 경산시 하양읍 교리길 90-1,경상북도 경산시 하양읍 교리 106-1,35.927517,128.815169,경로당 앞,하양119안전센터,N,Y,2006,0.5,2.1,100,경산소방서,053-819-6257,2021-11-30
"진량 지상 제058호",1,경상북도,경산시,47290,경상북도 경산시 진량읍 공단8로 42,경상북도 경산시 진량읍 신제리 541,35.861903,128.832211,대한볼트~세진테크 맞은편도로,진량119안전센터,N,Y,2010,0.5,2.2,65,경산소방서,053-819-6257,2021-11-30
"중산 지상 제040호",1,경상북도,경산시,47290,경상북도 경산시 성암로1길 17,경상북도 경산시 옥산동 846-1,35.822847,128.717447,협화아파트 108동 앞 대로변 버스승강장,중산119안전센터,N,Y,1994,0.5,2.2,65,경산소방서,053-819-6257,2021-11-30
"진량 지상 제027호",1,경상북도,경산시,47290,경상북도 경산시 진량읍 현내길 160,경상북도 경산시 진량읍 현내리 60,35.849366,128.863919,현내가든 ~ 금박산,진량119안전센터,N,Y,2005,0.5,2.3,65,경산소방서,053-819-6257,2021-11-30
"진량 지상 제063호",1,경상북도,경산시,47290,경상북도 경산시 진량읍 공단5로30길 32,경상북도 경산시 진량읍 신제리 635,35.857222,128.837781,골든빌 앞 신제리방향 도로상,진량119안전센터,N,Y,2010,0.5,2.3,65,경산소방서,053-819-6257,2021-11-30
"진량 지상 제030호",1,경상북도,경산시,47290,경상북도 경산시 진량읍 공단8로 91,경상북도 경산시 진량읍 대원리 400,35.866467,128.830383,건화이엔지 맞은편,진량119안전센터,N,Y,2010,0.5,2.3,65,경산소방서,053-819-6257,2021-11-30
"진량 지상 제046호",1,경상북도,경산시,47290,경상북도 경산시 진량읍 공단5로 72,경상북도 경산시 진량읍 대원리 503,35.858374,128.828308,카테크 공장 맞은편,진량119안전센터,N,Y,2010,0.5,2.3,65,경산소방서,053-819-6257,2021-11-30
"진량 지상 제054호",1,경상북도,경산시,47290,경상북도 경산시 진량읍 공단5로4길 1,경상북도 경산시 진량읍 대원리 447,35.858568,128.822287,근린공원 동남쪽,진량119안전센터,N,Y,2010,0.5,2.3,65,경산소방서,053-819-6257,2021-11-30
"하양 지상 제054호",1,경상북도,경산시,47290,경상북도 경산시 하양읍 금송로 232,경상북도 경산시 하양읍 대학리 86,35.931197,128.8284697,상수도 가압펌프장,하양119안전센터,N,N,2006,0.5,2.3,100,경산소방서,053-819-6257,2021-11-30
"진량 지상 제025호",1,경상북도,경산시,47290,경상북도 경산시 진량읍 일연로 699,경상북도 경산시 진량읍 선화리 303,35.870515,128.804032,진량카뱅크 건너 20m,진량119안전센터,N,Y,2005,0.5,2.4,65,경산소방서,053-819-6257,2021-11-30
"진량 지상 제028호",1,경상북도,경산시,47290,경상북도 경산시 진량읍 금박로 249,경상북도 경산시 진량읍 마곡리 447-3,35.840067,128.843189,마곡1리 버스정류장,진량119안전센터,N,Y,2005,0.5,2.4,65,경산소방서,053-819-6257,2021-11-30
"진량 지상 제071호",1,경상북도,경산시,47290,경상북도 경산시 진량읍 일연로 539,경상북도 경산시 진량읍 가야리 2-1,35.857096,128.805868,삼일방직 앞,진량119안전센터,Y,Y,2010,0.5,2.4,65,경산소방서,053-819-6257,2021-11-30
"진량 지상 제067호",1,경상북도,경산시,47290,경상북도 경산시 진량읍 공단5로30길 15,경상북도 경산시 진량읍 신제리 599,35.857436,128.836698,세븐일레븐 건너편,진량119안전센터,N,Y,2010,0.5,2.4,65,경산소방서,053-819-6257,2021-11-30
"진량 지상 제033호",1,경상북도,경산시,47290,경상북도 경산시 진량읍 공단9로 75,경상북도 경산시 진량읍 신제리 549,35.863784,128.834497,경북융합산업  뒤 25m,진량119안전센터,N,Y,2010,0.5,2.4,65,경산소방서,053-819-6257,2021-11-30
"진량 지상 제035호",1,경상북도,경산시,47290,경상북도 경산시 진량읍 공단7로 139,경상북도 경산시 진량읍 신제리 536,35.865092,128.836832,대성정밀 정문 맞은편,진량119안전센터,N,Y,2010,0.5,2.4,65,경산소방서,053-819-6257,2021-11-30
"진량 지상 제038호",1,경상북도,경산시,47290,경상북도 경산시 진량읍 공단8로26길 47,경상북도 경산시 진량읍 신제리 517,35.869605,128.836652,한국차폐기술 앞,진량119안전센터,N,Y,2010,0.5,2.4,65,경산소방서,053-819-6257,2021-11-30
"진량 지상 제041호",1,경상북도,경산시,47290,경상북도 경산시 진량읍 공단9로 108,경상북도 경산시 진량읍 신제리 532,35.866819,128.835068,아진산업 정문에서 화신정공 방향 50m,진량119안전센터,N,Y,2010,0.5,2.4,65,경산소방서,053-819-6257,2021-11-30
"진량 지상 제042호",1,경상북도,경산시,47290,경상북도 경산시 진량읍 공단9로 96,경상북도 경산시 진량읍 신제리 533,35.866075,128.835468,제다본사 정문 앞,진량119안전센터,N,Y,2010,0.5,2.4,65,경산소방서,053-819-6257,2021-11-30
"진량 지상 제044호",1,경상북도,경산시,47290,경상북도 경산시 진량읍 공단7로 53,경상북도 경산시 진량읍 대원리 407,35.863099,128.827678,주)이노프(경첩공장)맞은편 50m,진량119안전센터,N,Y,2010,0.5,2.4,65,경산소방서,053-819-6257,2021-11-30
"진량 지상 제050호",1,경상북도,경산시,47290,경상북도 경산시 진량읍 공단6로 17,경상북도 경산시 진량읍 대원리 416,35.860874,128.823839,일지테크 동문 진행방향 50m,진량119안전센터,N,Y,2010,0.5,2.4,65,경산소방서,053-819-6257,2021-11-30
"진량 지상 제053호",1,경상북도,경산시,47290,경상북도 경산시 진량읍 공단5로4길 42-5,경상북도 경산시 진량읍 대원리 467,35.857234,128.821817,바로부동산에서 동쪽 50m,진량119안전센터,Y,Y,2010,0.5,2.4,65,경산소방서,053-819-6257,2021-11-30
"진량 지상 제056호",1,경상북도,경산시,47290,경상북도 경산시 진량읍 공단5로4길 48-2,경상북도 경산시 진량읍 대원리 462,35.85747029,128.821477,써니빌 원룸 맞은편,진량119안전센터,N,Y,2018,0.5,2.4,65,경산소방서,053-819-6257,2021-11-30
"하양 지상 제055호",1,경상북도,경산시,47290,경상북도 경산시 하양읍 하양로 198,경상북도 경산시 하양읍 동서리 1105,35.917265,128.827698,충무횟집에서 청구2차 정문 방면 모퉁이,하양119안전센터,Y,Y,1998,0.5,2.4,100,경산소방서,053-819-6257,2021-11-30
"하양 지상 제041호",1,경상북도,경산시,47290,경상북도 경산시 하양읍 무학로 8-1,경상북도 경산시 하양읍 도리리 112-123,35.917063,128.815374,동신아파트 뒤 (하양지역아동센터 앞),하양119안전센터,Y,Y,2017,0.5,2.4,100,경산소방서,053-819-6257,2021-11-30
"자인 지상 제006호",1,경상북도,경산시,47290,경상북도 경산시 자인면 설총로 919,경상북도 경산시 자인면 동부리 162-3,35.818016,128.824714,옥수원,자인119안전센터,N,Y,1983,0.5,2.5,63.5,경산소방서,053-819-6257,2021-11-30
"자인 지상 제009호",1,경상북도,경산시,47290,경상북도 경산시 자인면 남촌길 27,경상북도 경산시 자인면 남촌리 164-2,35.829749,128.817628,주택(박복수씨 집 앞),자인119안전센터,N,Y,1989,0.5,2.5,65,경산소방서,053-819-6257,2021-11-30
"자인 지상 제010호",1,경상북도,경산시,47290,경상북도 경산시 자인면 남촌길 46,경상북도 경산시 자인면 남촌리 84-1,35.830081,128.819349,남촌경로당,자인119안전센터,N,Y,1989,0.5,2.5,65,경산소방서,053-819-6257,2021-11-30
"자인 지상 제012호",1,경상북도,경산시,47290,경상북도 경산시 자인면 자인시장길 12,경상북도 경산시 자인면 서부리 246-1,35.817136,128.823751,시장내 세면장 앞,자인119안전센터,Y,Y,1996,0.5,2.5,65,경산소방서,053-819-6257,2021-11-30
"자인 지상 제013호",1,경상북도,경산시,47290,경상북도 경산시 자인면 자인시장길 9,경상북도 경산시 자인면 서부리 254-1,35.816983,128.823302,자인시장 번영회사무실 앞,자인119안전센터,Y,Y,1996,0.5,2.5,65,경산소방서,053-819-6257,2021-11-30
"자인 지상 제031호",1,경상북도,경산시,47290,경상북도 경산시 용성면 원효로 1405,경상북도 경산시 용성면 당리리 161,35.793272,128.874668,용성초등 정문좌측,자인119안전센터,N,Y,1998,0.5,2.5,65,경산소방서,053-819-6257,2021-11-30
"자인 지상 제032호",1,경상북도,경산시,47290,경상북도 경산시 용성면 용성당리1길 22,경상북도 경산시 용성면 당리리 67-2,35.794712,128.8754401,용성의용소방대 앞,자인119안전센터,N,Y,1998,0.5,2.5,65,경산소방서,053-819-6257,2021-11-30
"자인 지상 제008호",1,경상북도,경산시,47290,경상북도 경산시 자인면 일연로 110,경상북도 경산시 자인면 북사리 265-1,35.82199964,128.820236,주택(자인의용소방대 맞은 편),자인119안전센터,Y,Y,1998,0.5,2.5,65,경산소방서,053-819-6257,2021-11-30
"자인 지상 제015호",1,경상북도,경산시,47290,경상북도 경산시 자인면 자인공단1로 44,경상북도 경산시 자인면 북사리 1085-3,35.827056,128.8178104,향원섬유,자인119안전센터,N,Y,1999,0.5,2.5,65,경산소방서,053-819-6257,2021-11-30
"자인 지상 제016호",1,경상북도,경산시,47290,경상북도 경산시 자인면 자인공단로 30,경상북도 경산시 자인면 북사리 1087-1,35.826183,128.820313,삼성유지,자인119안전센터,N,Y,1999,0.5,2.5,65,경산소방서,053-819-6257,2021-11-30
"자인 지상 제017호",1,경상북도,경산시,47290,경상북도 경산시 자인면 자인공단3로 47,경상북도 경산시 자인면 북사리 1086-6,35.827709,128.821456,엑스플로어,자인119안전센터,N,Y,1999,0.5,2.5,65,경산소방서,053-819-6257,2021-11-30
"자인 지상 제019호",1,경상북도,경산시,47290,경상북도 경산시 자인면 한장군로 496,경상북도 경산시 자인면 교촌리 378-7,35.828485,128.825174,한일화섬,자인119안전센터,N,Y,1999,0.5,2.5,65,경산소방서,053-819-6257,2021-11-30
"자인 지상 제021호",1,경상북도,경산시,47290,경상북도 경산시 자인면 자인공단로 80,경상북도 경산시 자인면 교촌리 379-2,35.827013,128.8256099,대한볼트 앞,자인119안전센터,N,Y,1999,0.5,2.5,65,경산소방서,053-819-6257,2021-11-30
"자인 지상 제022호",1,경상북도,경산시,47290,경상북도 경산시 자인면 자인공단로 66,경상북도 경산시 자인면 교촌리 380-3,35.827095,128.823875,제일종합식품,자인119안전센터,N,Y,1999,0.5,2.5,65,경산소방서,053-819-6257,2021-11-30
"자인 지상 제027호",1,경상북도,경산시,47290,경상북도 경산시 자인면 자인공단3로 6,경상북도 경산시 자인면 교촌리 381-10,35.824375,128.8243801,효림산업 앞,자인119안전센터,N,Y,1999,0.5,2.5,65,경산소방서,053-819-6257,2021-11-30
"자인 지상 제029호",1,경상북도,경산시,47290,경상북도 경산시 자인면 자인공단2로4길 15,경상북도 경산시 자인면 북사리 1087-7,35.825849,128.822338,현우정밀,자인119안전센터,N,Y,1999,0.5,2.5,65,경산소방서,053-819-6257,2021-11-30
"자인 지상 제030호",1,경상북도,경산시,47290,경상북도 경산시 자인면 자인로7길 11,경상북도 경산시 자인면 북사리 1092-6,35.824852,128.822052,동아텍스타일,자인119안전센터,N,Y,1999,0.5,2.5,65,경산소방서,053-819-6257,2021-11-30
"자인 지상 제014호",1,경상북도,경산시,47290,경상북도 경산시 자인면 자인공단2로 21,경상북도 경산시 자인면 북사리 1088-3,35.82534974,128.820015,새롬정밀 앞,자인119안전센터,N,Y,1999,0.5,2.5,65,경산소방서,053-819-6257,2021-11-30
"자인 지상 제018호",1,경상북도,경산시,47290,경상북도 경산시 자인면 한장군로 480,경상북도 경산시 자인면 교촌리 377-4,35.82848972,128.8237797,대동컴텍정문,자인119안전센터,N,Y,1999,0.5,2.5,65,경산소방서,053-819-6257,2021-11-30
"자인 지상 제020호",1,경상북도,경산시,47290,경상북도 경산시 자인면 자인공단로 71-7,경상북도 경산시 자인면 교촌리 377-9,35.8279296,128.824242,대한정밀화학 앞,자인119안전센터,N,Y,1999,0.5,2.5,65,경산소방서,053-819-6257,2021-11-30
"자인 지상 제023호",1,경상북도,경산시,47290,경상북도 경산시 자인면 자인공단2로4길 37,경상북도 경산시 자인면 교촌리 380-7,35.826046,128.824497,동양에스티 맞은편,자인119안전센터,N,Y,1999,0.5,2.5,65,경산소방서,053-819-6257,2021-11-30
"자인 지상 제024호",1,경상북도,경산시,47290,경상북도 경산시 자인면 자인공단2로4길 45,경상북도 경산시 자인면 교촌리 379-5,35.82608004,128.825625,대동산업 앞,자인119안전센터,N,Y,1999,0.5,2.5,65,경산소방서,053-819-6257,2021-11-30
"자인 지상 제025호",1,경상북도,경산시,47290,경상북도 경산시 자인면 자인로 57,경상북도 경산시 자인면 교촌리 381-18,35.82409959,128.8254701,제다 물류창고 옆,자인119안전센터,N,Y,1999,0.5,2.5,65,경산소방서,053-819-6257,2021-11-30
"자인 지상 제026호",1,경상북도,경산시,47290,경상북도 경산시 자인면 자인로 57,경상북도 경산시 자인면 교촌리 381-18,35.82409959,128.8254701,제다 공장정문 앞,자인119안전센터,N,Y,1999,0.5,2.5,65,경산소방서,053-819-6257,2021-11-30
"자인 지상 제028호",1,경상북도,경산시,47290,경상북도 경산시 자인면 자인공단3로 10,경상북도 경산시 자인면 교촌리 381-4,35.824502,128.823913,효림산업 앞,자인119안전센터,N,Y,1999,0.5,2.5,65,경산소방서,053-819-6257,2021-11-30
"압량 지상 제010호",1,경상북도,경산시,47290,경상북도 경산시 압량읍 가일길 91,경상북도 경산시 압량읍 가일리 193,35.841439,128.780615,태양프리보드 앞,압량119안전센터,N,Y,1999,0.5,2.5,65,경산소방서,053-819-6257,2021-11-30
"압량 지상 제012호",1,경상북도,경산시,47290,경상북도 경산시 대학로 293,경상북도 경산시 대동 168-5,35.837326,128.7540199,영대꽃나라 앞,압량119안전센터,Y,Y,2012,0.5,2.5,65,경산소방서,053-819-6257,2021-11-30
"자인 지상 제034호",1,경상북도,경산시,47290,경상북도 경산시 남산면 프라임밸리길 33,경상북도 경산시 남산면 전지리 1-21,35.792188,128.8177797,프라임벨리입구 삼거리(인근 건물 없음),자인119안전센터,N,Y,2001,0.5,2.5,65,경산소방서,053-819-6257,2021-11-30
"자인 지상 제001호",1,경상북도,경산시,47290,경상북도 경산시 자인면 금학로 2,경상북도 경산시 자인면 서부리 12-16,35.820363,128.822947,자인면사무소 맞은편 서부인쇄사 앞,자인119안전센터,Y,Y,2002,0.5,2.5,65,경산소방서,053-819-6257,2021-11-30
"자인 지상 제002호",1,경상북도,경산시,47290,경상북도 경산시 자인면 일연로 68-1,경상북도 경산시 자인면 서부리 21-1,35.819381,128.822968,동일쌀집,자인119안전센터,Y,Y,2002,0.5,2.5,65,경산소방서,053-819-6257,2021-11-30
"자인 지상 제003호",1,경상북도,경산시,47290,경상북도 경산시 자인면 금학로 22,경상북도 경산시 자인면 동부리 49,35.820296,128.825178,동부마을회관 인근 도로상,자인119안전센터,N,Y,2002,0.5,2.5,65,경산소방서,053-819-6257,2021-11-30
"자인 지상 제004호",1,경상북도,경산시,47290,경상북도 경산시 자인면 일연로 41,경상북도 경산시 자인면 서부리 100-9,35.817583,128.820865,자인주유소 맞은 편,자인119안전센터,N,Y,2002,0.5,2.5,65,경산소방서,053-819-6257,2021-11-30
"자인 지상 제005호",1,경상북도,경산시,47290,경상북도 경산시 자인면 자인로 191-1,경상북도 경산시 자인면 서부리 256-13,35.815984,128.823636,자인소비자 마트 앞,자인119안전센터,Y,Y,2002,0.5,2.5,65,경산소방서,053-819-6257,2021-11-30
"자인 지상 제011호",1,경상북도,경산시,47290,경상북도 경산시 자인면 계남길17길 1,경상북도 경산시 자인면 계남리 364-5,35.808571,128.810996,주택(김태식씨 댁 앞),자인119안전센터,N,Y,2002,0.5,2.5,65,경산소방서,053-819-6257,2021-11-30
"진량 지상 제024호",1,경상북도,경산시,47290,경상북도 경산시 진량읍 금박로 681,경상북도 경산시 진량읍 다문리 135-1,35.874626,128.858052,한마음공단 입구,진량119안전센터,Y,Y,2005,0.5,2.5,65,경산소방서,053-819-6257,2021-11-30
"자인 지상 제033호",1,경상북도,경산시,47290,경상북도 경산시 용성면 원효로 1423,경상북도 경산시 용성면 당리리 129-2,35.793523,128.875886,용성면사무소,자인119안전센터,N,Y,2005,0.5,2.5,65,경산소방서,053-819-6257,2021-11-30
"자인 지상 제062호",1,경상북도,경산시,47290,경상북도 경산시 용성면 육동로 558,경상북도 경산시 용성면 대종리 535-2,35.763505,128.904873,대종교,자인119안전센터,N,Y,2006,0.5,2.5,65,경산소방서,053-819-6257,2021-11-30
"자인 지상 제035호",1,경상북도,경산시,47290,경상북도 경산시 자인면 금학로 25-11,경상북도 경산시 자인면 교촌리 310-1,35.821488,128.826187,자인안전센터,자인119안전센터,Y,Y,2008,0.5,2.5,65,경산소방서,053-819-6257,2021-11-30
"자인 지상 제037호",1,경상북도,경산시,47290,경상북도 경산시 자인면 자인로 206-4,경상북도 경산시 자인면 서부리 254,35.816448,128.822971,승원식당 앞 (자인시장내),자인119안전센터,N,Y,2009,0.5,2.5,65,경산소방서,053-819-6257,2021-11-30
"자인 지상 제038호",1,경상북도,경산시,47290,경상북도 경산시 자인면 자인시장길 2,경상북도 경산시 자인면 동부리 159,35.816396,128.823873,윤미한복방 뒤(자인시장 내),자인119안전센터,N,Y,2009,0.5,2.5,65,경산소방서,053-819-6257,2021-11-30
"자인 지상 제039호",1,경상북도,경산시,47290,경상북도 경산시 자인면 원효로156길 206,경상북도 경산시 자인면 계남리 568-4,35.798519,128.814394,계남2리 마을회관 앞,자인119안전센터,Y,Y,2009,0.5,2.5,65,경산소방서,053-819-6257,2021-11-30
"자인 지상 제040호",1,경상북도,경산시,47290,경상북도 경산시 자인면 금박로 176,경상북도 경산시 자인면 읍천리 116-3,35.835656,128.838424,형제식품옆,자인119안전센터,N,Y,2009,0.5,2.5,65,경산소방서,053-819-6257,2021-11-30
"자인 지상 제042호",1,경상북도,경산시,47290,경상북도 경산시 용성면 육동로 161,경상북도 경산시 용성면 부제리 635-3,35.782739,128.8852195,마을회관앞(부제리),자인119안전센터,N,Y,2009,0.5,2.5,65,경산소방서,053-819-6257,2021-11-30
"자인 지상 제043호",1,경상북도,경산시,47290,경상북도 경산시 용성면 육동로 212,경상북도 경산시 용성면 부제리 725,35.779033,128.887602,버스정류장옆(부제리),자인119안전센터,N,Y,2009,0.5,2.5,65,경산소방서,053-819-6257,2021-11-30
"자인 지상 제044호",1,경상북도,경산시,47290,경상북도 경산시 용성면 용림로 15,경상북도 경산시 용성면 가척리 287-5,35.77084975,128.904103,가척리 경로당 앞,자인119안전센터,N,Y,2009,0.5,2.5,65,경산소방서,053-819-6257,2021-11-30
"자인 지상 제045호",1,경상북도,경산시,47290,경상북도 경산시 용성면 육동로 630,경상북도 경산시 용성면 용천리 149,35.763949,128.912907,학생야영장 옆 느티나무 앞,자인119안전센터,N,Y,2009,0.5,2.5,65,경산소방서,053-819-6257,2021-11-30
"자인 지상 제046호",1,경상북도,경산시,47290,경상북도 경산시 남산면 인흥3길 42,경상북도 경산시 남산면 하대리 7-2,35.804943,128.807422,하대공단 내,자인119안전센터,Y,Y,2009,0.5,2.5,65,경산소방서,053-819-6257,2021-11-30
"자인 지상 제047호",1,경상북도,경산시,47290,경상북도 경산시 남산면 하남로 316,경상북도 경산시 남산면 산양리 165,35.79260959,128.836592,남산초등학교 앞,자인119안전센터,Y,Y,2009,0.5,2.5,65,경산소방서,053-819-6257,2021-11-30
"진량 지상 제080호",1,경상북도,경산시,47290,경상북도 경산시 진량읍 평사1길 22,경상북도 경산시 진량읍 평사리 831,35.887153,128.859772,평사1리마을회관앞,진량119안전센터,Y,Y,2010,0.5,2.5,65,경산소방서,053-819-6257,2021-11-30
"진량 지상 제064호",1,경상북도,경산시,47290,경상북도 경산시 진량읍 공단5로30길 15-8,경상북도 경산시 진량읍 신제리 603,35.8574396,128.837455,루비타운 맞은편,진량119안전센터,N,Y,2010,0.5,2.5,65,경산소방서,053-819-6257,2021-11-30
"진량 지상 제068호",1,경상북도,경산시,47290,경상북도 경산시 진량읍 공단5로 135,경상북도 경산시 진량읍 신제리 563,35.859137,128.835559,동방플랜텍 족구장 건너편,진량119안전센터,N,Y,2010,0.5,2.5,65,경산소방서,053-819-6257,2021-11-30
"진량 지상 제069호",1,경상북도,경산시,47290,경상북도 경산시 진량읍 공단7로 113,경상북도 경산시 진량읍 신제리 530,35.865567,128.833784,대원리 송암이엔지 ~ 속초리방향 도로상,진량119안전센터,N,Y,2010,0.5,2.5,65,경산소방서,053-819-6257,2021-11-30
"진량 지상 제070호",1,경상북도,경산시,47290,경상북도 경산시 진량읍 공단7로 126,경상북도 경산시 진량읍 신제리 550,35.864071,128.835444,대원리 근로자복지회관 ~ 속초리방향 도로상,진량119안전센터,N,Y,2010,0.5,2.5,65,경산소방서,053-819-6257,2021-11-30
"진량 지상 제029호",1,경상북도,경산시,47290,경상북도 경산시 진량읍 공단8로26길 6,경상북도 경산시 진량읍 신제리 524,35.86825954,128.832242,ISP와 한일기공 도로 중간위치,진량119안전센터,N,Y,2010,0.5,2.5,65,경산소방서,053-819-6257,2021-11-30
"진량 지상 제034호",1,경상북도,경산시,47290,경상북도 경산시 진량읍 공단9로12길 25,경상북도 경산시 진량읍 신제리 557,35.8633395,128.835599,경북융합산업 앞 15m,진량119안전센터,N,Y,2010,0.5,2.5,65,경산소방서,053-819-6257,2021-11-30
"진량 지상 제037호",1,경상북도,경산시,47290,경상북도 경산시 진량읍 공단9로 108,경상북도 경산시 진량읍 신제리 532,35.866819,128.835078,아진산업 동쪽 인도,진량119안전센터,N,Y,2010,0.5,2.5,65,경산소방서,053-819-6257,2021-11-30
"진량 지상 제045호",1,경상북도,경산시,47290,경상북도 경산시 진량읍 공단7로 22,경상북도 경산시 진량읍 대원리 500,35.860076,128.829164,현대기업 맞은편,진량119안전센터,N,Y,2010,0.5,2.5,65,경산소방서,053-819-6257,2021-11-30
"진량 지상 제048호",1,경상북도,경산시,47290,경상북도 경산시 진량읍 공단5로 66,경상북도 경산시 진량읍 대원리 502,35.85835965,128.827951,천일종합물류 맞은편,진량119안전센터,N,Y,2010,0.5,2.5,65,경산소방서,053-819-6257,2021-11-30
"진량 지상 제055호",1,경상북도,경산시,47290,경상북도 경산시 진량읍 진성로 177,경상북도 경산시 진량읍 대원리 436,35.856037,128.820506,일진판넬 정문 근처,진량119안전센터,N,Y,2010,0.5,2.5,65,경산소방서,053-819-6257,2021-11-30
"자인 지상 제049호",1,경상북도,경산시,47290,경상북도 경산시 자인면 옥천길 82-2,경상북도 경산시 자인면 옥천리 50,35.81197965,128.841431,마을회관 앞(옥천1리),자인119안전센터,Y,Y,2011,0.5,2.5,65,경산소방서,053-819-6257,2021-11-30
"자인 지상 제048호",1,경상북도,경산시,47290,경상북도 경산시 용성면 구룡로 3-1,경상북도 경산시 용성면 당리리 118-3,35.793231,128.8769103,새마을금고 맞은편(당리1리),자인119안전센터,Y,Y,2012,0.5,2.5,65,경산소방서,053-819-6257,2021-11-30
"자인 지상 제050호",1,경상북도,경산시,47290,경상북도 경산시 남산면 송내공단길 51,경상북도 경산시 남산면 사월리 307-1,35.791143,128.8268495,영현산업 앞 도로상,자인119안전센터,Y,Y,2012,0.5,2.5,65,경산소방서,053-819-6257,2021-11-30
"자인 지상 제051호",1,경상북도,경산시,47290,경상북도 경산시 남산면 전지공단길 34-18,경상북도 경산시 남산면 전지리 741-6,35.788724,128.817703,SM테크 앞 도로상,자인119안전센터,Y,Y,2012,0.5,2.5,65,경산소방서,053-819-6257,2021-11-30
"자인 지상 제052호",1,경상북도,경산시,47290,경상북도 경산시 남산면 서원길 337-1,경상북도 경산시 남산면 조곡리 317-1,35.771235,128.815271,조곡교회 옆,자인119안전센터,N,Y,2012,0.5,2.5,65,경산소방서,053-819-6257,2021-11-30
"진량 지상 제078호",1,경상북도,경산시,47290,경상북도 경산시 진량읍 공단4로 132,경상북도 경산시 진량읍 신상리 1205-7,35.869363,128.829163,태강스틸 앞,진량119안전센터,Y,Y,2015,0.5,2.5,65,경산소방서,053-819-6257,2021-11-30
"자인 지상 제053호",1,경상북도,경산시,47290,경상북도 경산시 남산면 상대공단길 44,경상북도 경산시 남산면 상대리 87-4,35.789959,128.796829,동화산업 앞,자인119안전센터,Y,Y,2015,0.5,2.5,65,경산소방서,053-819-6257,2021-11-30
"자인 지상 제054호",1,경상북도,경산시,47290,경상북도 경산시 남산면 산양길 1,경상북도 경산시 남산면 산양리 170-2,35.793784,128.835196,남산면 복지회관 앞,자인119안전센터,Y,Y,2016,0.5,2.5,65,경산소방서,053-819-6257,2021-11-30
"자인 지상 제057호",1,경상북도,경산시,47290,경상북도 경산시 자인면 계림길 1,경상북도 경산시 자인면 계림리 117-1,35.838121,128.810181,계림리 회관,자인119안전센터,N,Y,2018,0.5,2.5,65,경산소방서,053-819-6257,2021-11-30
"자인 지상 제061호",1,경상북도,경산시,47290,경상북도 경산시 용성면 도덕1길 14,경상북도 경산시 용성면 도덕리 124-1,35.810103,128.880927,도덕보건진료소,자인119안전센터,Y,Y,2019,0.5,2.5,65,경산소방서,053-819-6257,2021-11-30
"하양 지상 제048호",1,경상북도,경산시,47290,경상북도 경산시 하양읍 동서2길 30,경상북도 경산시 하양읍 동서리 564-7,35.917767,128.8220697,성덕도 왼쪽 건물벽 전봇대,하양119안전센터,N,Y,2017,0.5,2.5,100,경산소방서,053-819-6257,2021-11-30
"하양 지상 제029호",1,경상북도,경산시,47290,경상북도 경산시 하양읍 하양로 15,경상북도 경산시 하양읍 금락리 237,35.908096,128.811888,대가대정문 CU편의점 모퉁이,하양119안전센터,N,Y,2002,0.5,2.5,100,경산소방서,053-819-6257,2021-11-30
"하양 지상 제031호",1,경상북도,경산시,47290,경상북도 경산시 하양읍 조산천동길 20,경상북도 경산시 하양읍 동서리 750-8,35.915695,128.823747,아름다운 미용실 앞,하양119안전센터,N,Y,2003,0.5,2.5,100,경산소방서,053-819-6257,2021-11-30
"하양 지상 제024호",1,경상북도,경산시,47290,경상북도 경산시 하양읍 대학로305길 25,경상북도 경산시 하양읍 금락리 133-2,35.912962,128.819583,하양초교정문 앞,하양119안전센터,N,Y,2003,0.5,2.5,100,경산소방서,053-819-6257,2021-11-30
"하양 지상 제010호",1,경상북도,경산시,47290,경상북도 경산시 하양읍 대경로105길 3,경상북도 경산시 하양읍 부호리 193,35.900565,128.802078,스피드당구장 앞 도로변,하양119안전센터,N,Y,2004,0.5,2.5,100,경산소방서,053-819-6257,2021-11-30
"하양 지상 제005호",1,경상북도,경산시,47290,경상북도 경산시 하양읍 탑소길 48-2,경상북도 경산시 하양읍 은호리 84,35.900414,128.7880703,3층주택 앞 공터 전봇대 옆,하양119안전센터,N,Y,2004,0.5,2.5,100,경산소방서,053-819-6257,2021-11-30
"하양 지상 제001호",1,경상북도,경산시,47290,경상북도 경산시 하양읍 대경로 107-1,경상북도 경산시 하양읍 청천리 466-9,35.880283,128.765882,청천치안분소앞(황제중화요리 앞),하양119안전센터,Y,Y,2007,0.5,2.5,100,경산소방서,053-819-6257,2021-11-30
"하양 지상 제015호",1,경상북도,경산시,47290,경상북도 경산시 하양읍 대학로298길 20-9,경상북도 경산시 하양읍 금락리 392-1,35.911056,128.827118,롯데A 106동 앞  주도로변 인도 부근,하양119안전센터,N,Y,2008,0.5,2.5,100,경산소방서,053-819-6257,2021-11-30
"하양 지상 제016호",1,경상북도,경산시,47290,경상북도 경산시 하양읍 대학로298길 20-9,경상북도 경산시 하양읍 금락리 392-1,35.911056,128.827118,롯데A 110동 앞 주도로변 인도 부근,하양119안전센터,N,Y,2007,0.5,2.5,100,경산소방서,053-819-6257,2021-11-30
"하양 지상 제017호",1,경상북도,경산시,47290,경상북도 경산시 하양읍 대학로298길 19-3,경상북도 경산시 하양읍 금락리 391-1,35.911877,128.824224,우방101동 동쪽 모퉁이,하양119안전센터,N,Y,2008,0.5,2.5,100,경산소방서,053-819-6257,2021-11-30
"하양 지상 제018호",1,경상북도,경산시,47290,경상북도 경산시 하양읍 대학로298길 1-2,경상북도 경산시 하양읍 금락리 391-8,35.911465,128.823612,금락초등학교 뒤편 변압기 앞 도로변,하양119안전센터,N,Y,2008,0.5,2.5,100,경산소방서,053-819-6257,2021-11-30
"하양 지상 제011호",1,경상북도,경산시,47290,경상북도 경산시 하양읍 대학로295길 2-17,경상북도 경산시 하양읍 금락리 402-1,35.911386,128.822284,영지어린이집 정문에서 오른쪽 옆,하양119안전센터,N,Y,2008,0.5,2.5,100,경산소방서,053-819-6257,2021-11-30
"하양 지상 제012호",1,경상북도,경산시,47290,경상북도 경산시 하양읍 대학로295길 16,경상북도 경산시 하양읍 금락리 407-6,35.909566,128.821645,홈마트,하양119안전센터,N,Y,2008,0.5,2.5,100,경산소방서,053-819-6257,2021-11-30
"하양 지상 제013호",1,경상북도,경산시,47290,경상북도 경산시 하양읍 대학로295길 42,경상북도 경산시 하양읍 금락리 408-1,35.90956014,128.8193401,평광A정문,하양119안전센터,N,Y,2008,0.5,2.5,100,경산소방서,053-819-6257,2021-11-30
"하양 지상 제014호",1,경상북도,경산시,47290,경상북도 경산시 하양읍 대학로295길 64,경상북도 경산시 하양읍 금락리 409-6,35.908196,128.816828,리버힐 아파트 앞 도로변,하양119안전센터,Y,Y,2017,0.5,2.5,100,경산소방서,053-819-6257,2021-11-30
"하양 지상 제003호",1,경상북도,경산시,47290,경상북도 경산시 하양읍 남하길 5,경상북도 경산시 하양읍 남하리 777-60,35.884265,128.7738799,청천초등학교 동문입구,하양119안전센터,N,Y,1999,0.5,2.5,100,경산소방서,053-819-6257,2021-11-30
"하양 지상 제004호",1,경상북도,경산시,47290,경상북도 경산시 하양읍 사열길 6,경상북도 경산시 하양읍 남하리 108,35.889913,128.778824,남하2리구판장 앞,하양119안전센터,Y,Y,1983,0.5,2.5,100,경산소방서,053-819-6257,2021-11-30
"하양 지상 제027호",1,경상북도,경산시,47290,경상북도 경산시 하양읍 하양로 61,경상북도 경산시 하양읍 금락리 117-22,35.910847,128.815396,중앙빌딩(고기요 및 코코헤어 앞 인도상),하양119안전센터,Y,Y,2017,0.5,2.5,100,경산소방서,053-819-6257,2021-11-30
"하양 지상 제039호",1,경상북도,경산시,47290,경상북도 경산시 하양읍 하양로 87,경상북도 경산시 하양읍 금락리 114-2,35.912566,128.8173301,다비치안경 앞 인도상(무료주차장 맞은편),하양119안전센터,Y,Y,2017,0.5,2.5,100,경산소방서,053-819-6257,2021-11-30
"하양 지상 제038호",1,경상북도,경산시,47290,경상북도 경산시 하양읍 하양로 107,경상북도 경산시 하양읍 금락리 19-2,35.913877,128.818968,경일신협 입간판 앞,하양119안전센터,Y,Y,2017,0.5,2.5,100,경산소방서,053-819-6257,2021-11-30
"하양 지상 제020호",1,경상북도,경산시,47290,경상북도 경산시 하양읍 대학로 1518,경상북도 경산시 하양읍 금락리 4-118,35.913664,128.821632,매일종합철물 앞,하양119안전센터,N,Y,2002,0.5,2.5,100,경산소방서,053-819-6257,2021-11-30
"하양 지상 제019호",1,경상북도,경산시,47290,경상북도 경산시 하양읍 대경로 760,경상북도 경산시 하양읍 금락리 4-173,35.912522,128.823001,동서교회 앞 가로등옆 인도상,하양119안전센터,N,Y,2002,0.5,2.5,100,경산소방서,053-819-6257,2021-11-30
"하양 지상 제040호",1,경상북도,경산시,47290,경상북도 경산시 하양읍 아낙고개길6길 22-1,경상북도 경산시 하양읍 금락리 53-7,35.915095,128.817138,하양농협 북부지점 안쪽 골목 서울미용실 앞,하양119안전센터,Y,Y,2017,0.5,2.5,100,경산소방서,053-819-6257,2021-11-30
"하양 지상 제035호",1,경상북도,경산시,47290,경상북도 경산시 하양읍 하양로25길 21-1,경상북도 경산시 하양읍 금락리 35-10,35.915374,128.818874,꿈동 GATE 4번 입구 앞,하양119안전센터,Y,Y,2013,0.5,2.5,100,경산소방서,053-819-6257,2021-11-30
"하양 지상 제033호",1,경상북도,경산시,47290,경상북도 경산시 하양읍 대학로 1544,경상북도 경산시 하양읍 금락리 35-89,35.915327,128.820489,공설시장 주차장 건물 신협ATM기 앞,하양119안전센터,N,Y,2013,0.5,2.5,100,경산소방서,053-819-6257,2021-11-30
"하양 지상 제050호",1,경상북도,경산시,47290,경상북도 경산시 하양읍 금송로 71,경상북도 경산시 하양읍 동서리 618-1,35.919395,128.818293,하양성당 정문 앞,하양119안전센터,Y,Y,2018,0.5,2.5,100,경산소방서,053-819-6257,2021-11-30
"하양 지상 제028호",1,경상북도,경산시,47290,경상북도 경산시 하양읍 문화로 10,경상북도 경산시 하양읍 금락리 131-137,35.910235,128.813568,효성프로젝트 앞(이상한 키친 앞),하양119안전센터,N,Y,1995,0.5,2.5,100,경산소방서,053-819-6257,2021-11-30
"하양 지상 제060호",1,경상북도,경산시,47290,경상북도 경산시 와촌면 상암길 99-1,경상북도 경산시 와촌면 상암리 519,35.940932,128.844423,주택 앞 도로상(박청자씨댁),하양119안전센터,Y,Y,1996,0.5,2.5,100,경산소방서,053-819-6257,2021-11-30
"하양 지상 제078호",1,경상북도,경산시,47290,경상북도 경산시 하양읍 하양로 119,경상북도 경산시 하양읍 금락리 8-2,35.914566,128.820008,영광약국 앞,하양119안전센터,Y,Y,2018,0.5,2.5,100,경산소방서,053-819-6257,2021-11-30
"하양 지상 제025호",1,경상북도,경산시,47290,경상북도 경산시 하양읍 대학로305길 35,경상북도 경산시 하양읍 금락리 116-173,35.912017,128.818114,본당 서울면옥 옆,하양119안전센터,N,Y,1995,0.5,2.5,100,경산소방서,053-819-6257,2021-11-30
"하양 지상 제036호",1,경상북도,경산시,47290,경상북도 경산시 하양읍 하양로27길 14,경상북도 경산시 하양읍 금락리 35-65,35.915643,128.820145,영양죽집 금락통닭 가운데 골목 안,하양119안전센터,N,Y,1998,0.5,2.5,100,경산소방서,053-819-6257,2021-11-30
"하양 지상 제079호",1,경상북도,경산시,47290,경상북도 경산시 하양읍 아낙고개길 19,경상북도 경산시 하양읍 금락리 82-5,35.913494,128.816071,개나리아파트 입구 담쪽,하양119안전센터,Y,Y,2018,0.5,2.5,100,경산소방서,053-819-6257,2021-11-30
"자인 지상 제059호",1,경상북도,경산시,47290,경상북도 경산시 남산면 삼성현공원로 59,경상북도 경산시 남산면 인흥리 250,35.801688,128.796612,삼성현문화회관,자인119안전센터,N,Y,2021,0.5,2.5,65,경산소방서,053-819-6257,2021-11-30
"중산 지상 제049호",1,경상북도,경산시,47290,경상북도 경산시 삼성현로35길 12,경상북도 경산시 사정동 252-1,35.817531,128.723763,사정동 경산실내테니스장 옆,중산119안전센터,Y,Y,1979,0.5,2.5,65,경산소방서,053-819-6257,2021-11-30
"진량 지상 제004호",1,경상북도,경산시,47290,경상북도 경산시 진량읍 공단4로 164,경상북도 경산시 진량읍 신상리 1190-19,35.871716,128.828781,금영DMC 앞,진량119안전센터,N,Y,1994,0.5,2.6,65,경산소방서,053-819-6257,2021-11-30
"진량 지상 제005호",1,경상북도,경산시,47290,경상북도 경산시 진량읍 공단2로 105,경상북도 경산시 진량읍 신상리 1190-23,35.871952,128.830527,제일CPT 앞,진량119안전센터,Y,Y,1994,0.5,2.6,65,경산소방서,053-819-6257,2021-11-30
"진량 지상 제006호",1,경상북도,경산시,47290,경상북도 경산시 진량읍 공단8로 177,경상북도 경산시 진량읍 신상리 1190-12,35.872653,128.833016,태한 앞,진량119안전센터,Y,Y,1994,0.5,2.6,65,경산소방서,053-819-6257,2021-11-30
"진량 지상 제007호",1,경상북도,경산시,47290,경상북도 경산시 진량읍 공단4로40길 44,경상북도 경산시 진량읍 신상리 1190-8,35.874154,128.833361,금영테크 앞,진량119안전센터,N,Y,1994,0.5,2.6,65,경산소방서,053-819-6257,2021-11-30
"진량 지상 제008호",1,경상북도,경산시,47290,경상북도 경산시 진량읍 공단3로 57,경상북도 경산시 진량읍 신상리 1203-5,35.868941,128.825137,조일알루미늄 사거리,진량119안전센터,N,Y,1994,0.5,2.6,65,경산소방서,053-819-6257,2021-11-30
"진량 지상 제009호",1,경상북도,경산시,47290,경상북도 경산시 진량읍 공단4로 96,경상북도 경산시 진량읍 신상리 1206-7,35.86568954,128.829158,대동가스텍 입구,진량119안전센터,N,Y,1994,0.5,2.6,65,경산소방서,053-819-6257,2021-11-30
"진량 지상 제016호",1,경상북도,경산시,47290,경상북도 경산시 진량읍 양기길 19,경상북도 경산시 진량읍 양기리 177,35.896759,128.830643,양기경로당 앞 쓰레기소각장,진량119안전센터,N,Y,1994,0.5,2.6,65,경산소방서,053-819-6257,2021-11-30
"진량 지상 제010호",1,경상북도,경산시,47290,경상북도 경산시 진량읍 공단2로3길 72,경상북도 경산시 진량읍 신상리 364-19,35.872556,128.823781,진량119안전센터,진량119안전센터,N,Y,1995,0.5,2.6,65,경산소방서,053-819-6257,2021-11-30
"진량 지상 제012호",1,경상북도,경산시,47290,경상북도 경산시 진량읍 공단1로 20,경상북도 경산시 진량읍 신상리 381-3,35.873661,128.820975,북어세상앞,진량119안전센터,N,Y,1996,0.5,2.6,65,경산소방서,053-819-6257,2021-11-30
"진량 지상 제014호",1,경상북도,경산시,47290,경상북도 경산시 진량읍 공단1로7길 17,경상북도 경산시 진량읍 신상리 340-4,35.875284,128.822321,행운도시원룸 앞,진량119안전센터,N,Y,1996,0.5,2.6,65,경산소방서,053-819-6257,2021-11-30
"진량 지상 제015호",1,경상북도,경산시,47290,경상북도 경산시 진량읍 문천길37길 16,경상북도 경산시 진량읍 문천리 514-7,35.886952,128.837921,문천2리경로당 삼거리,진량119안전센터,Y,Y,1999,0.5,2.6,65,경산소방서,053-819-6257,2021-11-30
"진량 지상 제018호",1,경상북도,경산시,47290,경상북도 경산시 진량읍 봉회길 22,경상북도 경산시 진량읍 신상리 900,35.880813,128.813446,매일유업 옆 S-oil 경산IC주유소앞,진량119안전센터,Y,Y,1999,0.5,2.6,65,경산소방서,053-819-6257,2021-11-30
"압량 지상 제011호",1,경상북도,경산시,47290,경상북도 경산시 대학로 279,경상북도 경산시 대동 163-4,35.836477,128.752756,칭구짬뽕 앞,압량119안전센터,N,Y,2000,0.5,2.6,65,경산소방서,053-819-6257,2021-11-30
"진량 지상 제020호",1,경상북도,경산시,47290,경상북도 경산시 진량읍 일연로 645,경상북도 경산시 진량읍 선화리 207,35.866279,128.804321,CU편의점 앞,진량119안전센터,N,Y,2002,0.5,2.6,65,경산소방서,053-819-6257,2021-11-30
"진량 지상 제021호",1,경상북도,경산시,47290,경상북도 경산시 진량읍 상림2길 10-4,경상북도 경산시 진량읍 상림리 233-1,35.90202017,128.833583,상림리마을회관앞,진량119안전센터,N,Y,2004,0.5,2.6,65,경산소방서,053-819-6257,2021-11-30
"진량 지상 제026호",1,경상북도,경산시,47290,경상북도 경산시 진량읍 현내길20길 39,경상북도 경산시 진량읍 현내리 333,35.846498,128.857963,현내리 마을회관 맞은편,진량119안전센터,N,Y,2005,0.5,2.6,65,경산소방서,053-819-6257,2021-11-30
"진량 지상 제022호",1,경상북도,경산시,47290,경상북도 경산시 진량읍 진성로 60,경상북도 경산시 진량읍 당곡리 190-4,35.851111,128.809913,당곡리버스정류장 건너,진량119안전센터,N,Y,2005,0.5,2.6,65,경산소방서,053-819-6257,2021-11-30
"압량 지상 제015호",1,경상북도,경산시,47290,경상북도 경산시 청운2로 77,경상북도 경산시 조영동 570-6,35.843109,128.755966,"보현빌 앞, 얼짱짬뽕",압량119안전센터,N,Y,1999,0.5,2.6,65,경산소방서,053-819-6257,2021-11-30
"진량 지상 제023호",1,경상북도,경산시,47290,경상북도 경산시 진량읍 문천길 138,경상북도 경산시 진량읍 양기리 421-4,35.890525,128.832873,에덴사계절탕앞,진량119안전센터,N,Y,2006,0.5,2.6,65,경산소방서,053-819-6257,2021-11-30
"진량 지상 제019호",1,경상북도,경산시,47290,경상북도 경산시 진량읍 대구대로 568,경상북도 경산시 진량읍 다문리 638,35.876762,128.851685,다문삼거리,진량119안전센터,N,Y,2010,0.5,2.6,65,경산소방서,053-819-6257,2021-11-30
"진량 지상 제060호",1,경상북도,경산시,47290,경상북도 경산시 진량읍 공단5로 112,경상북도 경산시 진량읍 신제리 566,35.85831024,128.832689,전우정밀 서쪽도로상,진량119안전센터,N,Y,2010,0.5,2.6,65,경산소방서,053-819-6257,2021-11-30
"진량 지상 제061호",1,경상북도,경산시,47290,경상북도 경산시 진량읍 공단9로 9,경상북도 경산시 진량읍 신제리 572,35.857672,128.834615,OK자동차정비 앞 15m,진량119안전센터,N,Y,2010,0.5,2.6,65,경산소방서,053-819-6257,2021-11-30
"진량 지상 제066호",1,경상북도,경산시,47290,경상북도 경산시 진량읍 공단5로30길 3,경상북도 경산시 진량읍 신제리 578,35.858681,128.836682,동방플랜텍 15m,진량119안전센터,N,Y,2010,0.5,2.6,65,경산소방서,053-819-6257,2021-11-30
"진량 지상 제039호",1,경상북도,경산시,47290,경상북도 경산시 진량읍 공단10로 171,경상북도 경산시 진량읍 신제리 523,35.870631,128.836538,효림산업 앞,진량119안전센터,N,Y,2010,0.5,2.6,65,경산소방서,053-819-6257,2021-11-30
"진량 지상 제047호",1,경상북도,경산시,47290,경상북도 경산시 진량읍 공단5로 88,경상북도 경산시 진량읍 대원리 507,35.858471,128.830254,대한금속진량공장 맞은편 20m,진량119안전센터,Y,Y,2010,0.5,2.6,65,경산소방서,053-819-6257,2021-11-30
"진량 지상 제049호",1,경상북도,경산시,47290,경상북도 경산시 진량읍 진성로 209,경상북도 경산시 진량읍 대원리 490,35.857844,128.824329,㈜풍원 후면 맞은편 40m,진량119안전센터,Y,Y,2010,0.5,2.6,65,경산소방서,053-819-6257,2021-11-30
"진량 지상 제057호",1,경상북도,경산시,47290,경상북도 경산시 진량읍 공단8로 64,경상북도 경산시 진량읍 신제리 538,35.863705,128.8321198,케이에스 인더스트리 앞,진량119안전센터,Y,Y,2010,0.5,2.6,65,경산소방서,053-819-6257,2021-11-30
"진량 지상 제011호",1,경상북도,경산시,47290,경상북도 경산시 진량읍 공단1로 37,경상북도 경산시 진량읍 신상리 358-4,35.873965,128.823142,미송숯불갈비 맞은편,진량119안전센터,Y,Y,2014,0.5,2.6,65,경산소방서,053-819-6257,2021-11-30
"진량 지상 제013호",1,경상북도,경산시,47290,경상북도 경산시 진량읍 다문로 87,경상북도 경산시 진량읍 신상리 688-13,35.875908,128.820496,서울부동산 앞,진량119안전센터,Y,Y,2016,0.5,2.6,65,경산소방서,053-819-6257,2021-11-30
"진량 지상 제082호",1,경상북도,경산시,47290,경상북도 경산시 진량읍 공단6로 193,경상북도 경산시 진량읍 신상리 334-4,35.876299,128.824643,대진카맞은편,진량119안전센터,Y,Y,2018,0.5,2.6,65,경산소방서,053-819-6257,2021-11-30
"진량 지상 제017호",1,경상북도,경산시,47290,경상북도 경산시 진량읍 봉황길 2,경상북도 경산시 진량읍 봉회리 46-1,35.884009,128.818277,진량농협중앙지점앞,진량119안전센터,N,Y,2018,0.5,2.6,65,경산소방서,053-819-6257,2021-11-30
"진량 지상 제095호",1,경상북도,경산시,47290,경상북도 경산시 진량읍 공단6로 141,경상북도 경산시 진량읍 신상리 362-8,35.871726,128.824686,편의점 맞은편,진량119안전센터,Y,Y,2019,0.5,2.6,65,경산소방서,053-819-6257,2021-11-30
"진량 지상 제096호",1,경상북도,경산시,47290,경상북도 경산시 진량읍 공단8로 241,경상북도 경산시 진량읍 신상리 1186-3,35.877823,128.833406,시대합섬공장 입구 좌측 15m,진량119안전센터,Y,Y,2019,0.5,2.6,65,경산소방서,053-819-6257,2021-11-30
"진량 지상 제099호",1,경상북도,경산시,47290,경상북도 경산시 진량읍 공단2로 23,경상북도 경산시 진량읍 신상리 497-12,35.871748,128.821825,금강산노래방,진량119안전센터,Y,Y,2019,0.5,2.6,65,경산소방서,053-819-6257,2021-11-30
"진량 지상 제097호",1,경상북도,경산시,47290,경상북도 경산시 진량읍 다문로 166,경상북도 경산시 진량읍 신상리 1185,35.876946,128.829097,삼원테크,진량119안전센터,Y,Y,2019,0.5,2.6,65,경산소방서,053-819-6257,2021-11-30
"진량 지상 제098호",1,경상북도,경산시,47290,경상북도 경산시 진량읍 공단4로 192,경상북도 경산시 진량읍 신상리 1190,35.874341,128.829046,필립정문 앞,진량119안전센터,Y,Y,2019,0.5,2.6,65,경산소방서,053-819-6257,2021-11-30
"진량 지상 제100호",1,경상북도,경산시,47290,경상북도 경산시 진량읍 공단4로 58,경상북도 경산시 진량읍 신상리 1206-13,35.862971,128.825329,케어룸의료산업[구.윈텍스] 앞,진량119안전센터,Y,Y,2019,0.5,2.6,65,경산소방서,053-819-6257,2021-11-30
"중앙 지상 제007호",1,경상북도,경산시,47290,경상북도 경산시 장산로 299,경상북도 경산시 사동 585-4,35.81609021,128.756684,돼지한마리 앞,중앙119안전센터,N,Y,2001,0.5,2.6,65,경산소방서,053-819-6257,2021-11-30
"중앙 지상 제010호",1,경상북도,경산시,47290,경상북도 경산시 원효로 121,경상북도 경산시 삼풍동 498-1,35.822882,128.750859,T스테이션 경산점 동쪽 50m,중앙119안전센터,N,Y,2001,0.5,2.6,65,경산소방서,053-819-6257,2021-11-30
"중앙 지상 제019호",1,경상북도,경산시,47290,경상북도 경산시 삼풍로2길 22,경상북도 경산시 삼풍동 519-7,35.820221,128.756531,스카이DC마트 앞,중앙119안전센터,N,Y,2001,0.5,2.6,65,경산소방서,053-819-6257,2021-11-30
"중앙 지상 제033호",1,경상북도,경산시,47290,경상북도 경산시 백양로 181,경상북도 경산시 사동 670-1,35.81189984,128.761237,"사동 부영 507동 뒤편, 54호 위쪽",중앙119안전센터,N,Y,2001,0.5,2.6,65,경산소방서,053-819-6257,2021-11-30
"중앙 지상 제034호",1,경상북도,경산시,47290,경상북도 경산시 백양로 181,경상북도 경산시 사동 670-1,35.81189984,128.761237,"사동 부영 506동 뒤편, 55호 위쪽",중앙119안전센터,N,Y,2001,0.5,2.6,65,경산소방서,053-819-6257,2021-11-30
"중앙 지상 제042호",1,경상북도,경산시,47290,경상북도 경산시 백자로20길 42,경상북도 경산시 사동 669-2,35.812513,128.760971,미녀와야수 미용실 앞,중앙119안전센터,N,Y,2001,0.5,2.6,65,경산소방서,053-819-6257,2021-11-30
"중앙 지상 제050호",1,경상북도,경산시,47290,경상북도 경산시 백양로33길 41,경상북도 경산시 사동 652-5,35.814776,128.760778,경산시청년연합회 앞,중앙119안전센터,N,Y,2001,0.5,2.6,65,경산소방서,053-819-6257,2021-11-30
"압량 지상 제002호",1,경상북도,경산시,47290,경상북도 경산시 압량읍 부적길 36-6,경상북도 경산시 압량읍 부적리 503-2,35.842387,128.760329,대백마트 앞,압량119안전센터,Y,Y,2000,0.5,2.7,65,경산소방서,053-819-6257,2021-11-30
"압량 지상 제003호",1,경상북도,경산시,47290,경상북도 경산시 압량읍 부적길 116,경상북도 경산시 압량읍 부적리 91-7,35.849228,128.764012,프로스팀세차장 앞,압량119안전센터,Y,Y,2000,0.5,2.7,65,경산소방서,053-819-6257,2021-11-30
"압량 지상 제014호",1,경상북도,경산시,47290,경상북도 경산시 압량읍 청운1로 87,경상북도 경산시 압량읍 부적리 385-6,35.842602,128.757953,"예담빌,굽네치킨",압량119안전센터,N,Y,1999,0.5,2.7,65,경산소방서,053-819-6257,2021-11-30
"중앙 지상 제047호",1,경상북도,경산시,47290,경상북도 경산시 백양로33길 31,경상북도 경산시 사동 660,35.814002,128.759056,"부영 2차 정문 위, 사동중학교 북쪽(후문)",중앙119안전센터,N,Y,2001,0.5,2.7,65,경산소방서,053-819-6257,2021-11-30
"중앙 지상 제080호",1,경상북도,경산시,47290,경상북도 경산시 백양로29길 10,경상북도 경산시 사동 112,35.812773,128.758286,백양로29길 10 옆 나대지 앞,중앙119안전센터,N,Y,2008,0.5,2.7,65,경산소방서,053-819-6257,2021-11-30
"진량 지상 제051호",1,경상북도,경산시,47290,경상북도 경산시 진량읍 공단7로 31-18,경상북도 경산시 진량읍 대원리 411,35.861755,128.825388,엠디엔 맞은편,진량119안전센터,N,Y,2010,0.5,2.7,65,경산소방서,053-819-6257,2021-11-30
"중앙 지상 제001호",1,경상북도,경산시,47290,경상북도 경산시 원효로 126,경상북도 경산시 계양동 665,35.822295,128.751082,의성방앗간 앞,중앙119안전센터,Y,Y,1988,0.5,2.7,65,경산소방서,053-819-6257,2021-11-30
"중앙 지상 제015호",1,경상북도,경산시,47290,경상북도 경산시 삼풍로 15,경상북도 경산시 삼풍동 506-4,35.822114,128.754807,태왕옷수선 앞,중앙119안전센터,N,Y,2001,0.5,2.7,65,경산소방서,053-819-6257,2021-11-30
"중앙 지상 제020호",1,경상북도,경산시,47290,경상북도 경산시 삼풍로2길 20,경상북도 경산시 삼풍동 519-1,35.820333,128.756384,해뜨는요양병원 건너편,중앙119안전센터,Y,Y,2001,0.5,2.7,65,경산소방서,053-819-6257,2021-11-30
"중앙 지상 제021호",1,경상북도,경산시,47290,경상북도 경산시 삼풍로2길 4-9,경상북도 경산시 삼풍동 516-20,35.820611,128.755221,원조풍천장어앞,중앙119안전센터,N,Y,2001,0.5,2.7,65,경산소방서,053-819-6257,2021-11-30
"중앙 지상 제023호",1,경상북도,경산시,47290,경상북도 경산시 삼풍로2길 10-1,경상북도 경산시 삼풍동 516-6,35.820793,128.755447,"생큐마트, 보스빌",중앙119안전센터,N,Y,2001,0.5,2.7,65,경산소방서,053-819-6257,2021-11-30
"중앙 지상 제024호",1,경상북도,경산시,47290,경상북도 경산시 삼풍로4길 16-6,경상북도 경산시 삼풍동 512-21,35.821546,128.755981,평화마을원룸 뒤편,중앙119안전센터,N,Y,2001,0.5,2.7,65,경산소방서,053-819-6257,2021-11-30
"중앙 지상 제032호",1,경상북도,경산시,47290,경상북도 경산시 백자로20길 51,경상북도 경산시 사동 662-1,35.812471,128.7619401,사동 부영 108동 뒤편,중앙119안전센터,N,Y,2001,0.5,2.7,65,경산소방서,053-819-6257,2021-11-30
"중앙 지상 제039호",1,경상북도,경산시,47290,경상북도 경산시 백양로 181,경상북도 경산시 사동 670-1,35.81189984,128.761237,사동 부영 501동 앞 부영 경계,중앙119안전센터,N,Y,2001,0.5,2.7,65,경산소방서,053-819-6257,2021-11-30
"중앙 지상 제040호",1,경상북도,경산시,47290,경상북도 경산시 백양로35길 2-13,경상북도 경산시 사동 668-14,35.811637,128.760544,베네치아 원룸 앞,중앙119안전센터,Y,Y,2001,0.5,2.7,65,경산소방서,053-819-6257,2021-11-30
"중앙 지상 제041호",1,경상북도,경산시,47290,경상북도 경산시 백양로33길 14,경상북도 경산시 사동 665-4,35.812376,128.759735,"쌍용부동산, 크린파트너 앞",중앙119안전센터,N,Y,2001,0.5,2.7,65,경산소방서,053-819-6257,2021-11-30
"중앙 지상 제048호",1,경상북도,경산시,47290,경상북도 경산시 백양로33길 32,경상북도 경산시 사동 661,35.813806,128.760995,"사동초등학교 북쪽, 운문유치원 맞은편",중앙119안전센터,N,Y,2001,0.5,2.7,65,경산소방서,053-819-6257,2021-11-30
"중앙 지상 제051호",1,경상북도,경산시,47290,경상북도 경산시 박물관로 15,경상북도 경산시 사동 637-2,35.816227,128.7605602,사동 부영 206동 맞은편,중앙119안전센터,N,Y,2001,0.5,2.7,65,경산소방서,053-819-6257,2021-11-30
"하양 지상 제056호",1,경상북도,경산시,47290,경상북도 경산시 하양읍 동서길 43,경상북도 경산시 하양읍 동서리 559-5,35.916985,128.822742,동서이용소 건너편,하양119안전센터,Y,Y,2017,0.5,2.7,100,경산소방서,053-819-6257,2021-11-30
"압량 지상 제006호",1,경상북도,경산시,47290,경상북도 경산시 압량읍 신대길 57,경상북도 경산시 압량읍 부적리 170,35.844603,128.767178,우진직물 앞,압량119안전센터,N,Y,2000,0.5,2.8,65,경산소방서,053-819-6257,2021-11-30
"압량 지상 제007호",1,경상북도,경산시,47290,경상북도 경산시 압량읍 부적길 50,경상북도 경산시 압량읍 부적리 462-1,35.84392018,128.760883,압량파출소 앞,압량119안전센터,Y,Y,2000,0.5,2.8,65,경산소방서,053-819-6257,2021-11-30
"중앙 지상 제079호",1,경상북도,경산시,47290,경상북도 경산시 백양로29길 4-16,경상북도 경산시 사동 140,35.81162977,128.758896,스카이빌리지 건물 입구(1층:경산축산물도매) 앞,중앙119안전센터,Y,Y,2008,0.5,2.8,65,경산소방서,053-819-6257,2021-11-30
"중앙 지상 제111호",1,경상북도,경산시,47290,경상북도 경산시 원효로22길 14,경상북도 경산시 계양동 672-3,35.821631,128.749026,대한예수교침례회 경산교회 앞,중앙119안전센터,N,Y,2009,0.5,2.8,65,경산소방서,053-819-6257,2021-11-30
"압량 지상 제018호",1,경상북도,경산시,47290,경상북도 경산시 둥지로 61,경상북도 경산시 임당동 647-1,35.842207,128.751155,GS25 편의점 앞,압량119안전센터,N,Y,1999,0.5,2.8,65,경산소방서,053-819-6257,2021-11-30
"압량 지상 제022호",1,경상북도,경산시,47290,경상북도 경산시 압량읍 화랑로59길 29,경상북도 경산시 압량읍 부적리 525-30,35.838871,128.759972,올스타원룸 앞,압량119안전센터,Y,Y,2005,0.5,2.8,65,경산소방서,053-819-6257,2021-11-30
"압량 지상 제025호",1,경상북도,경산시,47290,경상북도 경산시 압량읍 압독2로1길 8,경상북도 경산시 압량읍 신대리 396,35.842892,128.763286,60m 위쪽,압량119안전센터,Y,Y,2009,0.5,2.8,65,경산소방서,053-819-6257,2021-11-30
"압량 지상 제026호",1,경상북도,경산시,47290,경상북도 경산시 압량읍 압독3로 35,경상북도 경산시 압량읍 신대리 419,35.8426999,128.764996,공원 옆,압량119안전센터,N,Y,2009,0.5,2.8,65,경산소방서,053-819-6257,2021-11-30
"압량 지상 제027호",1,경상북도,경산시,47290,경상북도 경산시 압량읍 압독3로 31,경상북도 경산시 압량읍 신대리 420,35.842472,128.764851,공영주차장 입구,압량119안전센터,Y,Y,2009,0.5,2.8,65,경산소방서,053-819-6257,2021-11-30
"압량 지상 제028호",1,경상북도,경산시,47290,경상북도 경산시 압량읍 압독2로1길 20-11,경상북도 경산시 압량읍 신대리 405-1,35.842654,128.763737,압독2로1길 20-15 DC마트 앞,압량119안전센터,N,Y,2009,0.5,2.8,65,경산소방서,053-819-6257,2021-11-30
"압량 지상 제029호",1,경상북도,경산시,47290,경상북도 경산시 압량읍 압독2로2길 3,경상북도 경산시 압량읍 신대리 431,35.842093,128.762924,루마썬팅 앞,압량119안전센터,N,Y,2009,0.5,2.8,65,경산소방서,053-819-6257,2021-11-30
"진량 지상 제032호",1,경상북도,경산시,47290,경상북도 경산시 진량읍 공단7로 113,경상북도 경산시 진량읍 신제리 530,35.865567,128.833784,송암이엔지 맞은편,진량119안전센터,N,Y,2010,0.5,2.8,65,경산소방서,053-819-6257,2021-11-30
"진량 지상 제040호",1,경상북도,경산시,47290,경상북도 경산시 진량읍 공단8로26길 23,경상북도 경산시 진량읍 신제리 514,35.869405,128.833323,우성철강 2공장 앞,진량119안전센터,N,Y,2010,0.5,2.8,65,경산소방서,053-819-6257,2021-11-30
"진량 지상 제043호",1,경상북도,경산시,47290,경상북도 경산시 진량읍 공단7로 71,경상북도 경산시 진량읍 대원리 404,35.864137,128.829037,성신하스코,진량119안전센터,N,Y,2010,0.5,2.8,65,경산소방서,053-819-6257,2021-11-30
"진량 지상 제052호",1,경상북도,경산시,47290,경상북도 경산시 진량읍 공단5로 13,경상북도 경산시 진량읍 대원리 415,35.85991041,128.821424,세미머티리얼즈 정문 옆 7m,진량119안전센터,N,Y,2010,0.5,2.8,65,경산소방서,053-819-6257,2021-11-30
"진량 지상 제059호",1,경상북도,경산시,47290,경상북도 경산시 진량읍 공단8로 36,경상북도 경산시 진량읍 신제리 542,35.861362,128.831557,조양~전우정밀 맞은편,진량119안전센터,N,Y,2010,0.5,2.8,65,경산소방서,053-819-6257,2021-11-30
"압량 지상 제038호",1,경상북도,경산시,47290,경상북도 경산시 압량읍 압독2로 26-1,경상북도 경산시 압량읍 신대리 500,35.841267,128.765474,코아루참집식당 앞,압량119안전센터,N,Y,2009,0.5,2.8,65,경산소방서,053-819-6257,2021-11-30
"압량 지상 제039호",1,경상북도,경산시,47290,경상북도 경산시 압량읍 압독3로2길 3-12,경상북도 경산시 압량읍 신대리 535,35.841154,128.764938,CU편의점 건너편,압량119안전센터,Y,Y,2009,0.5,2.8,65,경산소방서,053-819-6257,2021-11-30
"자인 지상 제063호",1,경상북도,경산시,47290,경상북도 경산시 용성면 구룡로 252,경상북도 경산시 용성면 송림리 446-4,35.798772,128.901622,쉼터 슈퍼,자인119안전센터,Y,Y,2019,0.5,2.8,65,경산소방서,053-819-6257,2021-11-30
"중앙 지상 제002호",1,경상북도,경산시,47290,경상북도 경산시 원효로26길 2,경상북도 경산시 계양동 660-6,35.822338,128.750774,마산복집 맞은편,중앙119안전센터,Y,Y,2000,0.5,2.8,65,경산소방서,053-819-6257,2021-11-30
"중앙 지상 제003호",1,경상북도,경산시,47290,경상북도 경산시 중방로 125,경상북도 경산시 계양동 61-4,35.833269,128.746582,북부동주민센터 앞,중앙119안전센터,N,Y,1999,0.5,2.8,65,경산소방서,053-819-6257,2021-11-30
"중앙 지상 제009호",1,경상북도,경산시,47290,경상북도 경산시 장산로 255,경상북도 경산시 계양동 669-4,35.81786978,128.752214,하바나익스프레스 앞,중앙119안전센터,Y,Y,2001,0.5,2.8,65,경산소방서,053-819-6257,2021-11-30
"중앙 지상 제012호",1,경상북도,경산시,47290,경상북도 경산시 삼풍로5길 19-1,경상북도 경산시 삼풍동 503-2,35.823501,128.753855,태왕드림하이츠 110동 앞 도로 건너편 테라빌 앞,중앙119안전센터,N,Y,2001,0.5,2.8,65,경산소방서,053-819-6257,2021-11-30
"중앙 지상 제013호",1,경상북도,경산시,47290,경상북도 경산시 삼풍로5길 7-1,경상북도 경산시 삼풍동 504-1,35.823193,128.754724,살찐돼지돈까스 앞,중앙119안전센터,N,Y,2001,0.5,2.8,65,경산소방서,053-819-6257,2021-11-30
"중앙 지상 제014호",1,경상북도,경산시,47290,경상북도 경산시 삼풍로6길 2,경상북도 경산시 삼풍동 507-1,35.822762,128.755656,경북테크노파크 입구 건너편,중앙119안전센터,N,Y,2001,0.5,2.8,65,경산소방서,053-819-6257,2021-11-30
"중앙 지상 제016호",1,경상북도,경산시,47290,경상북도 경산시 삼풍로 11,경상북도 경산시 삼풍동 500-1,35.82186038,128.754607,태왕드림하이츠 108동 옆 공원 앞,중앙119안전센터,N,Y,2001,0.5,2.8,65,경산소방서,053-819-6257,2021-11-30
"중앙 지상 제017호",1,경상북도,경산시,47290,경상북도 경산시 삼풍로6길 16,경상북도 경산시 삼풍동 507-11,35.82200031,128.756748,백년가약 원룸 앞,중앙119안전센터,N,Y,2001,0.5,2.8,65,경산소방서,053-819-6257,2021-11-30
"중앙 지상 제018호",1,경상북도,경산시,47290,경상북도 경산시 삼풍로6길 28,경상북도 경산시 삼풍동 515-19,35.821063,128.757059,청운빌리지 옆,중앙119안전센터,N,Y,2001,0.5,2.8,65,경산소방서,053-819-6257,2021-11-30
"중앙 지상 제026호",1,경상북도,경산시,47290,경상북도 경산시 미래로 114,경상북도 경산시 평산동 270,35.813973,128.765898,대구미래대학 입구 버스승강장 옆,중앙119안전센터,N,Y,2001,0.5,2.8,65,경산소방서,053-819-6257,2021-11-30
"중앙 지상 제027호",1,경상북도,경산시,47290,경상북도 경산시 박물관로 41,경상북도 경산시 사동 641-11,35.815191,128.763188,경산시립박물관 건너편,중앙119안전센터,N,Y,2001,0.5,2.8,65,경산소방서,053-819-6257,2021-11-30
"중앙 지상 제028호",1,경상북도,경산시,47290,경상북도 경산시 박물관로7길 2,경상북도 경산시 사동 641-16,35.815474,128.7625103,청도추어탕 서편,중앙119안전센터,N,Y,2001,0.5,2.8,65,경산소방서,053-819-6257,2021-11-30
"중앙 지상 제029호",1,경상북도,경산시,47290,경상북도 경산시 박물관로7길 2,경상북도 경산시 사동 641-16,35.815474,128.7625103,"부영 208동 건너편, 안전소방 건너편",중앙119안전센터,N,Y,2001,0.5,2.8,65,경산소방서,053-819-6257,2021-11-30
"중앙 지상 제049호",1,경상북도,경산시,47290,경상북도 경산시 백자로20길 51,경상북도 경산시 사동 662-1,35.812471,128.7619401,"사동초등학교 옆, 부영 103동 북쪽",중앙119안전센터,N,Y,2001,0.5,2.8,65,경산소방서,053-819-6257,2021-11-30
"중앙 지상 제052호",1,경상북도,경산시,47290,경상북도 경산시 백자로 130,경상북도 경산시 사동 650-2,35.816347,128.759172,사동 경산우체국 앞,중앙119안전센터,N,Y,2001,0.5,2.8,65,경산소방서,053-819-6257,2021-11-30
"중앙 지상 제058호",1,경상북도,경산시,47290,경상북도 경산시 솔숲길 81,경상북도 경산시 평산동 711,35.805934,128.760854,사동휴먼시아2단지 입구 100m,중앙119안전센터,N,Y,2009,0.5,2.8,65,경산소방서,053-819-6257,2021-11-30
"중앙 지상 제059호",1,경상북도,경산시,47290,경상북도 경산시 솔숲길 100,경상북도 경산시 평산동 695,35.808484,128.761654,사동휴먼시아2단지 입구 70m,중앙119안전센터,N,Y,2009,0.5,2.8,65,경산소방서,053-819-6257,2021-11-30
"중앙 지상 제060호",1,경상북도,경산시,47290,경상북도 경산시 솔숲길 100,경상북도 경산시 평산동 695,35.808484,128.761654,사동휴먼시아2단지 206동 앞,중앙119안전센터,N,Y,2009,0.5,2.8,65,경산소방서,053-819-6257,2021-11-30
"중앙 지상 제062호",1,경상북도,경산시,47290,경상북도 경산시 솔숲길15길 32,경상북도 경산시 평산동 704,35.806822,128.760148,도로 건너,중앙119안전센터,N,Y,2009,0.5,2.8,65,경산소방서,053-819-6257,2021-11-30
"중앙 지상 제069호",1,경상북도,경산시,47290,경상북도 경산시 솔숲길4길 6-15,경상북도 경산시 사동 243,35.806693,128.752243,횡단보도 옆,중앙119안전센터,N,Y,2009,0.5,2.8,65,경산소방서,053-819-6257,2021-11-30
"중앙 지상 제070호",1,경상북도,경산시,47290,경상북도 경산시 백자로10길 55,경상북도 경산시 사동 180,35.808156,128.759003,사동휴먼시아1단지 101동 앞,중앙119안전센터,N,Y,2009,0.5,2.8,65,경산소방서,053-819-6257,2021-11-30
"중앙 지상 제082호",1,경상북도,경산시,47290,경상북도 경산시 백자로 135,경상북도 경산시 사동 563-4,35.81699038,128.758844,경산세무서 맞은편 GS25편의점 앞,중앙119안전센터,N,Y,2021,0.5,2.8,65,경산소방서,053-819-6257,2021-11-30
"중앙 지상 제091호",1,경상북도,경산시,47290,경상북도 경산시 원효로42길 68,경상북도 경산시 사동 608-8,35.813284,128.755038,도로 건너 백양로 말매못공원 앞,중앙119안전센터,N,N,2010,0.5,2.8,65,경산소방서,053-819-6257,2021-11-30
"중앙 지상 제092호",1,경상북도,경산시,47290,경상북도 경산시 원효로40길 66,경상북도 경산시 사동 607-4,35.813815,128.754001,원효로40길 66 도로 건너,중앙119안전센터,N,N,2010,0.5,2.8,65,경산소방서,053-819-6257,2021-11-30
"중앙 지상 제093호",1,경상북도,경산시,47290,경상북도 경산시 백양로 101,경상북도 경산시 사동 607-11,35.814091,128.753021,버스정류장 옆,중앙119안전센터,N,Y,2010,0.5,2.8,65,경산소방서,053-819-6257,2021-11-30
"중앙 지상 제094호",1,경상북도,경산시,47290,경상북도 경산시 백양로 87,경상북도 경산시 사동 600-3,35.81460004,128.751676,초원파크아파트 입구 도로 건너,중앙119안전센터,N,Y,2010,0.5,2.8,65,경산소방서,053-819-6257,2021-11-30
"중앙 지상 제097호",1,경상북도,경산시,47290,경상북도 경산시 솔숲길3길 22,경상북도 경산시 사동 191,35.808783,128.7528001,솔숲길3길 22 옆 나대지 앞,중앙119안전센터,N,N,2010,0.5,2.8,65,경산소방서,053-819-6257,2021-11-30
"중앙 지상 제098호",1,경상북도,경산시,47290,경상북도 경산시 솔숲길3길 3-7,경상북도 경산시 사동 201,35.807598,128.752475,횡단보도 옆,중앙119안전센터,N,N,2010,0.5,2.8,65,경산소방서,053-819-6257,2021-11-30
"중앙 지상 제099호",1,경상북도,경산시,47290,경상북도 경산시 삼성현로91길 45,경상북도 경산시 사동 21,35.812245,128.753292,사동화성파크드림 입구 도로 건너,중앙119안전센터,Y,Y,2010,0.5,2.8,65,경산소방서,053-819-6257,2021-11-30
"중앙 지상 제103호",1,경상북도,경산시,47290,경상북도 경산시 장산로 294,경상북도 경산시 사동 592-1,35.816026,128.755744,"미소미, 대림세차장",중앙119안전센터,N,Y,2010,0.5,2.8,65,경산소방서,053-819-6257,2021-11-30
"중앙 지상 제104호",1,경상북도,경산시,47290,경상북도 경산시 원효로28길 60-6,경상북도 경산시 계양동 683,35.81751977,128.748237,동부초등학교 옆(원효로28길 53과 원효로28길 60 사이,중앙119안전센터,Y,Y,2010,0.5,2.8,65,경산소방서,053-819-6257,2021-11-30
"중앙 지상 제105호",1,경상북도,경산시,47290,경상북도 경산시 계양로 28,경상북도 경산시 계양동 683-2,35.81826961,128.747839,경산컨벤션웨딩과 경산시민회관 사이,중앙119안전센터,N,N,2010,0.5,2.8,65,경산소방서,053-819-6257,2021-11-30
"중앙 지상 제106호",1,경상북도,경산시,47290,경상북도 경산시 평산1길 13,경상북도 경산시 평산동 590,35.801624,128.7635397,"파티마요양병원 올라가는 길, 승진섬유",중앙119안전센터,N,Y,2012,0.5,2.8,65,경산소방서,053-819-6257,2021-11-30
"중앙 지상 제054호",1,경상북도,경산시,47290,경상북도 경산시 솔숲길18길 18,경상북도 경산시 평산동 772,35.804827,128.761763,인터불고 골프장 방면,중앙119안전센터,N,Y,2009,0.5,2.8,65,경산소방서,053-819-6257,2021-11-30
"중앙 지상 제057호",1,경상북도,경산시,47290,경상북도 경산시 솔숲길16길 11,경상북도 경산시 평산동 761,35.805431,128.759505,솔숲길16길 17 더사랑교회 앞,중앙119안전센터,N,Y,2009,0.5,2.8,65,경산소방서,053-819-6257,2021-11-30
"중앙 지상 제078호",1,경상북도,경산시,47290,경상북도 경산시 백자로10길 11,경상북도 경산시 사동 148,35.80930032,128.756807,사동부영6차 616동 앞,중앙119안전센터,N,Y,2008,0.5,2.8,65,경산소방서,053-819-6257,2021-11-30
"압량 지상 제044호",1,경상북도,경산시,47290,경상북도 경산시 압량읍 압독4로1길 18,경상북도 경산시 압량읍 신대리 655,35.838066,128.764798,SUCCESS원룸,압량119안전센터,N,Y,2009,0.5,2.8,65,경산소방서,053-819-6257,2021-11-30
"압량 지상 제056호",1,경상북도,경산시,47290,경상북도 경산시 경안로65길 5-7,경상북도 경산시 대평동 439-2,35.835342,128.733914,구 씨하우스 앞,압량119안전센터,N,Y,2010,0.5,2.8,65,경산소방서,053-819-6257,2021-11-30
"압량 지상 제057호",1,경상북도,경산시,47290,경상북도 경산시 경안로67길 2-4,경상북도 경산시 대평동 433-11,35.836883,128.733581,DIY가구점 앞,압량119안전센터,N,Y,2010,0.5,2.8,65,경산소방서,053-819-6257,2021-11-30
"압량 지상 제058호",1,경상북도,경산시,47290,경상북도 경산시 경안로69길 12,경상북도 경산시 대평동 428-1,35.838585,128.730687,대평그린빌 111동 옆,압량119안전센터,N,Y,2010,0.5,2.8,65,경산소방서,053-819-6257,2021-11-30
"압량 지상 제059호",1,경상북도,경산시,47290,경상북도 경산시 경안로 497,경상북도 경산시 대정동 137,35.85157942,128.7264117,경산시 수질관리사업소 정문 좌측 20m,압량119안전센터,N,Y,2010,0.5,2.8,65,경산소방서,053-819-6257,2021-11-30
"압량 지상 제060호",1,경상북도,경산시,47290,경상북도 경산시 대정길7길 1,경상북도 경산시 대정동 623-1,35.844491,128.734928,대정동회관 앞,압량119안전센터,N,Y,2010,0.5,2.8,65,경산소방서,053-819-6257,2021-11-30
"압량 지상 제062호",1,경상북도,경산시,47290,경상북도 경산시 압량읍 압량시장길 5-4,경상북도 경산시 압량읍 부적리 456,35.844257,128.759919,"압량공설시장 뒤편, 삼성시스템 입구 맞은편",압량119안전센터,N,Y,2016,0.5,2.8,65,경산소방서,053-819-6257,2021-11-30
"중산 지상 제039호",1,경상북도,경산시,47290,경상북도 경산시 삼성현로31길 9,경상북도 경산시 옥산동 884-4,35.819478,128.721137,해오름아파트서쪽대로 상,중산119안전센터,N,Y,1994,0.5,2.8,65,경산소방서,053-819-6257,2021-11-30
"중산 지상 제044호",1,경상북도,경산시,47290,경상북도 경산시 성암로12길 20,경상북도 경산시 옥산동 868-9,35.821823,128.724053,신우마트 앞,중산119안전센터,N,Y,1994,0.5,2.8,65,경산소방서,053-819-6257,2021-11-30
"중산 지상 제050호",1,경상북도,경산시,47290,경상북도 경산시 성암로15길 16,경상북도 경산시 옥산동 822-7,35.825157,128.7238901,새한컴퓨터 앞,중산119안전센터,N,Y,1979,0.5,2.8,65,경산소방서,053-819-6257,2021-11-30
"중산 지상 제051호",1,경상북도,경산시,47290,경상북도 경산시 삼성현로15길 54,경상북도 경산시 옥산동 820-8,35.825887,128.721989,구 새한후문 부근,중산119안전센터,Y,Y,1979,0.5,2.8,65,경산소방서,053-819-6257,2021-11-30
"압량 지상 제004호",1,경상북도,경산시,47290,경상북도 경산시 압량읍 압량길 16,경상북도 경산시 압량읍 부적리 157,35.846173,128.765842,(주)대유 우측,압량119안전센터,N,Y,2000,0.5,2.9,65,경산소방서,053-819-6257,2021-11-30
"압량 지상 제005호",1,경상북도,경산시,47290,경상북도 경산시 압량읍 연무길 53,경상북도 경산시 압량읍 압량리 150,35.846965,128.770217,부림인슈보드 앞,압량119안전센터,N,Y,2000,0.5,2.9,65,경산소방서,053-819-6257,2021-11-30
"압량 지상 제008호",1,경상북도,경산시,47290,경상북도 경산시 압량읍 현흥길 38-7,경상북도 경산시 압량읍 현흥리 516-1,35.863616,128.767707,과수원 옆,압량119안전센터,Y,Y,2014,0.5,2.9,65,경산소방서,053-819-6257,2021-11-30
"압량 지상 제009호",1,경상북도,경산시,47290,경상북도 경산시 압량읍 압량시장길 9,경상북도 경산시 압량읍 부적리 453,35.844578,128.759705,부적1리회관,압량119안전센터,N,Y,2000,0.5,2.9,65,경산소방서,053-819-6257,2021-11-30
"압량 지상 제016호",1,경상북도,경산시,47290,경상북도 경산시 청운2로 24,경상북도 경산시 조영동 577-7,35.839777,128.751953,미리내빌 앞,압량119안전센터,N,Y,1999,0.5,2.9,65,경산소방서,053-819-6257,2021-11-30
"압량 지상 제017호",1,경상북도,경산시,47290,경상북도 경산시 둥지로 43,경상북도 경산시 임당동 646-5,35.841762,128.752832,소망마을 원룸 앞,압량119안전센터,N,Y,1999,0.5,2.9,65,경산소방서,053-819-6257,2021-11-30
"압량 지상 제019호",1,경상북도,경산시,47290,경상북도 경산시 둥지로 77,경상북도 경산시 임당동 625-7,35.842644,128.749378,김밥사랑 앞,압량119안전센터,N,Y,1999,0.5,2.9,65,경산소방서,053-819-6257,2021-11-30
"압량 지상 제020호",1,경상북도,경산시,47290,경상북도 경산시 궁당로 64,경상북도 경산시 임당동 521-2,35.844688,128.750594,"코아루104동, 리치빌 원룸 건너편",압량119안전센터,N,Y,1999,0.5,2.9,65,경산소방서,053-819-6257,2021-11-30
"압량 지상 제024호",1,경상북도,경산시,47290,경상북도 경산시 경안로 392,경상북도 경산시 대평동 375-1,35.842534,128.733429,청명주유소 옆,압량119안전센터,N,Y,2001,0.5,2.9,65,경산소방서,053-819-6257,2021-11-30
"진량 지상 제065호",1,경상북도,경산시,47290,경상북도 경산시 진량읍 공단5로30길 45,경상북도 경산시 진량읍 신제리 587,35.858291,128.837252,아일랜드타운 맞은편,진량119안전센터,N,Y,2010,0.5,2.9,65,경산소방서,053-819-6257,2021-11-30
"압량 지상 제042호",1,경상북도,경산시,47290,경상북도 경산시 압량읍 압독3로2길 8-12,경상북도 경산시 압량읍 신대리 545,35.839586,128.764046,깔롱부리는 날 미용실 앞,압량119안전센터,N,Y,2009,0.5,2.9,65,경산소방서,053-819-6257,2021-11-30
"압량 지상 제043호",1,경상북도,경산시,47290,경상북도 경산시 압량읍 압독2로8길 25-1,경상북도 경산시 압량읍 신대리 630,35.838985,128.765065,과일에 빠진 날,압량119안전센터,N,Y,2009,0.5,2.9,65,경산소방서,053-819-6257,2021-11-30
"압량 지상 제045호",1,경상북도,경산시,47290,경상북도 경산시 압량읍 압독4로1길 6,경상북도 경산시 압량읍 신대리 663,35.837876,128.765915,에이스빌원룸,압량119안전센터,N,Y,2009,0.5,2.9,65,경산소방서,053-819-6257,2021-11-30
"압량 지상 제046호",1,경상북도,경산시,47290,경상북도 경산시 압량읍 압독2로 38,경상북도 경산시 압량읍 신대리 579,35.84050027,128.766565,"대박식당 맞은편, 압량초등학교",압량119안전센터,N,Y,2009,0.5,2.9,65,경산소방서,053-819-6257,2021-11-30
"중앙 지상 제045호",1,경상북도,경산시,47290,경상북도 경산시 백자로20길 2,경상북도 경산시 사동 657-2,35.813846,128.756854,"사동 타이어프로 앞, 부영 304동 남쪽",중앙119안전센터,N,Y,2001,0.5,3,65,경산소방서,053-819-6257,2021-11-30
"압량 지상 제023호",1,경상북도,경산시,47290,경상북도 경산시 압량읍 노선길 91,경상북도 경산시 압량읍 금구리 475-1,35.856078,128.7565595,금구리 버스승강장 옆,압량119안전센터,Y,Y,2014,0.5,3,65,경산소방서,053-819-6257,2021-11-30
"진량 지상 제072호",1,경상북도,경산시,47290,경상북도 경산시 진량읍 당곡2길 62,경상북도 경산시 진량읍 당곡리 125-7,35.846408,128.812743,동건화학 앞,진량119안전센터,N,Y,2014,0.5,3,65,경산소방서,053-819-6257,2021-11-30
"진량 지상 제079호",1,경상북도,경산시,47290,경상북도 경산시 진량읍 공단4로 20,경상북도 경산시 진량읍 신상리 1210,35.861896,128.821898,세명기업앞,진량119안전센터,Y,Y,2015,0.5,3,65,경산소방서,053-819-6257,2021-11-30
"자인 지상 제056호",1,경상북도,경산시,47290,경상북도 경산시 남산면 상대로 793,경상북도 경산시 남산면 하대리 666-42,35.799298,128.804151,하대1리 마을회관 인근,자인119안전센터,N,Y,2017,0.5,3,65,경산소방서,053-819-6257,2021-11-30
"중앙 지상 제147호",1,경상북도,경산시,47290,경상북도 경산시 중앙로14길 24,경상북도 경산시 서상동 6-1,35.820532,128.734894,삼북동 할인마트 앞,중앙119안전센터,Y,Y,1994,0.5,3,65,경산소방서,053-819-6257,2021-11-30
"중앙 지상 제108호",1,경상북도,경산시,47290,경상북도 경산시 들뫼길31길 35,경상북도 경산시 유곡동 293-2,35.797763,128.7761301,봄봄카페앞,중앙119안전센터,Y,Y,2018,0.5,3,65,경산소방서,053-819-6257,2021-11-30
"중앙 지상 제139호",1,경상북도,경산시,47290,경상북도 경산시 대학로32길 1,경상북도 경산시 중방동 35-2,35.833715,128.740311,임당역 1번출구,중앙119안전센터,N,Y,2019,0.5,3,65,경산소방서,053-819-6257,2021-11-30
"중앙 지상 제140호",1,경상북도,경산시,47290,경상북도 경산시 중앙로14길 34,경상북도 경산시 서상동 14-2,35.819606,128.734879,M모텔,중앙119안전센터,Y,Y,2019,0.5,3,65,경산소방서,053-819-6257,2021-11-30
"중앙 지상 제141호",1,경상북도,경산시,47290,경상북도 경산시 경청로215길 14,경상북도 경산시 백천동 587-5,35.801346,128.736243,참편한집밥뷔페,중앙119안전센터,N,Y,2019,0.5,3,65,경산소방서,053-819-6257,2021-11-30
"하양 지상 제081호",1,경상북도,경산시,47290,경상북도 경산시 하양읍 대경로 403,경상북도 경산시 하양읍 은호리 10-9,35.897509,128.790226,국군병원 입구 삼거리,하양119안전센터,Y,Y,2019,0.5,3,100,경산소방서,053-819-6257,2021-11-30
"하양 지상 제082호",1,경상북도,경산시,47290,경상북도 경산시 하양읍 가마실길 96,경상북도 경산시 하양읍 부호리 371-1,35.907875,128.7980401,부호2리마을회관 앞,하양119안전센터,Y,Y,2019,0.5,3,100,경산소방서,053-819-6257,2021-11-30
"하양 지상 제083호",1,경상북도,경산시,47290,경상북도 경산시 하양읍 석천1길 23,경상북도 경산시 하양읍 동서리 115-21,35.917911,128.839254,마을구판장 앞,하양119안전센터,Y,Y,2019,0.5,3,100,경산소방서,053-819-6257,2021-11-30
"하양 지상 제077호",1,경상북도,경산시,47290,경상북도 경산시 와촌면 용천길26길 26,경상북도 경산시 와촌면 용천리 472,35.916061,128.844218,여정기집 앞,하양119안전센터,N,Y,1995,0.5,3,100,경산소방서,053-819-6257,2021-11-30
"압량 지상 제047호",1,경상북도,경산시,47290,경상북도 경산시 압량읍 압독2로 45,경상북도 경산시 압량읍 신대리 485,35.840953,128.767681,신대부적부영1차 101동 앞 도로변(비엔나음악학원 앞),압량119안전센터,N,Y,2009,0.5,3,65,경산소방서,053-819-6257,2021-11-30
"중산 지상 제047호",1,경상북도,경산시,47290,경상북도 경산시 성암로8길 24,경상북도 경산시 옥산동 884-2,35.820582,128.722717,청구아파트 후문 입구,중산119안전센터,N,Y,1994,0.5,3,65,경산소방서,053-819-6257,2021-11-30
"중산 지상 제052호",1,경상북도,경산시,47290,경상북도 경산시 성암로1길 1,경상북도 경산시 옥산동 846-10,35.821866,128.717927,성암초등학교 육교 앞,중산119안전센터,Y,Y,1994,0.5,3,65,경산소방서,053-819-6257,2021-11-30
"중산 지상 제031호",1,경상북도,경산시,47290,경상북도 경산시 남천면 협석2길 3,경상북도 경산시 남천면 협석리 438-2,35.78965022,128.731178,달구벌명가식품,중산119안전센터,N,Y,2021,0.5,3,65,경산소방서,053-819-6257,2021-11-30
"압량 지상 제050호",1,경상북도,경산시,47290,경상북도 경산시 압량읍 김유신로 12,경상북도 경산시 압량읍 신대리 149,35.838464,128.7697102,경산소방서 맞은편,압량119안전센터,N,Y,2009,0.5,3.1,65,경산소방서,053-819-6257,2021-11-30
"압량 지상 제053호",1,경상북도,경산시,47290,경상북도 경산시 압량읍 압독로 18,경상북도 경산시 압량읍 신대리 707,35.83721049,128.7669604,영남대 체육실습장 옆,압량119안전센터,N,Y,2009,0.5,3.1,65,경산소방서,053-819-6257,2021-11-30
"압량 지상 제031호",1,경상북도,경산시,47290,경상북도 경산시 압량읍 압독2로2길 33,경상북도 경산시 압량읍 신대리 453,35.841583,128.763273,"압독2로2길 33 맞은편, 성원빌딩 맞은편",압량119안전센터,Y,Y,2009,0.5,3.2,65,경산소방서,053-819-6257,2021-11-30
"진량 지상 제094호",1,경상북도,경산시,47290,경상북도 경산시 진량읍 다문로61길 59,경상북도 경산시 진량읍 문천리 29-1,35.880728,128.848604,사거리 전신주 앞,진량119안전센터,Y,Y,2019,0.5,3.2,65,경산소방서,053-819-6257,2021-11-30
"압량 지상 제013호",1,경상북도,경산시,47290,경상북도 경산시 대학로 333,경상북도 경산시 조영동 239-15,35.839804,128.757275,영남제일외과의원 앞,압량119안전센터,N,Y,2000,0.5,3.3,65,경산소방서,053-819-6257,2021-11-30
"중앙 지상 제043호",1,경상북도,경산시,47290,경상북도 경산시 백자로20길 30,경상북도 경산시 사동 663-3,35.813019,128.7596904,"사동중 건너 부영청훈태권도장 옆,유리네일 앞",중앙119안전센터,N,Y,2001,0.5,3.3,65,경산소방서,053-819-6257,2021-11-30
"압량 지상 제036호",1,경상북도,경산시,47290,경상북도 경산시 압량읍 화랑로 294,경상북도 경산시 압량읍 신대리 464,35.840475,128.762985,"한우숯불갈비 앞, 다온빌딩 앞",압량119안전센터,N,Y,2009,0.5,3.3,65,경산소방서,053-819-6257,2021-11-30
"압량 지상 제037호",1,경상북도,경산시,47290,경상북도 경산시 압량읍 화랑로 288,경상북도 경산시 압량읍 신대리 466,35.840098,128.763404,"일천우 앞, 대륙공인중개사 앞",압량119안전센터,N,Y,2009,0.5,3.3,65,경산소방서,053-819-6257,2021-11-30
"중산 지상 제081호",1,경상북도,경산시,47290,경상북도 경산시 경산로 255,경상북도 경산시 중산동 565,35.830653,128.723123,"중산동,새한택지개발지구 앞",중산119안전센터,Y,Y,2015,0.5,3.3,65,경산소방서,053-819-6257,2021-11-30
"압량 지상 제032호",1,경상북도,경산시,47290,경상북도 경산시 압량읍 압독3로 15,경상북도 경산시 압량읍 신대리 475,35.841151,128.764089,돈고을왕소금 앞,압량119안전센터,N,Y,2009,0.5,3.4,65,경산소방서,053-819-6257,2021-11-30
"자인 지상 제055호",1,경상북도,경산시,47290,경상북도 경산시 자인면 계남길17길 37,경상북도 경산시 자인면 계남리 349,35.805742,128.811209,(계남1리 회관),자인119안전센터,N,Y,1991,0.5,3.5,65,경산소방서,053-819-6257,2021-11-30
"중앙 지상 제044호",1,경상북도,경산시,47290,경상북도 경산시 백자로20길 7,경상북도 경산시 사동 659-1,35.813973,128.757538,"부영 301동 건너,CU사동센타점 앞",중앙119안전센터,Y,Y,2001,0.5,3.5,65,경산소방서,053-819-6257,2021-11-30
"중앙 지상 제046호",1,경상북도,경산시,47290,경상북도 경산시 백자로20길 7,경상북도 경산시 사동 659-1,35.813973,128.757538,"부영 303동 뒤편, 우체국에서 500m, 알찬대게 맞은편",중앙119안전센터,N,Y,2001,0.5,3.5,65,경산소방서,053-819-6257,2021-11-30
"압량 지상 제030호",1,경상북도,경산시,47290,경상북도 경산시 압량읍 압독3로 15,경상북도 경산시 압량읍 신대리 475,35.841151,128.764089,"압독3로 15 50m 위쪽,GS25 앞",압량119안전센터,N,Y,2009,0.5,3.5,65,경산소방서,053-819-6257,2021-11-30
"압량 지상 제033호",1,경상북도,경산시,47290,경상북도 경산시 압량읍 압독3로 9,경상북도 경산시 압량읍 신대리 469,35.840491,128.763716,SG타워 앞,압량119안전센터,N,Y,2009,0.5,3.5,65,경산소방서,053-819-6257,2021-11-30
"압량 지상 제035호",1,경상북도,경산시,47290,경상북도 경산시 압량읍 화랑로 306,경상북도 경산시 압량읍 신대리 459,35.84126033,128.761977,"한라아파트 맞은편, 별다방미스리 경산점 앞",압량119안전센터,N,Y,2009,0.5,3.5,65,경산소방서,053-819-6257,2021-11-30
"압량 지상 제048호",1,경상북도,경산시,47290,경상북도 경산시 압량읍 압독2로 57,경상북도 경산시 압량읍 신대리 486,35.840353,128.768776,신대부적부영2차 201동 앞 도로변,압량119안전센터,N,Y,2009,0.5,3.5,65,경산소방서,053-819-6257,2021-11-30
"압량 지상 제049호",1,경상북도,경산시,47290,경상북도 경산시 압량읍 압독4로1길 38-1,경상북도 경산시 압량읍 신대리 674,35.838478,128.766164,푸르지오 101동 앞,압량119안전센터,N,Y,2009,0.5,3.5,65,경산소방서,053-819-6257,2021-11-30
"압량 지상 제064호",1,경상북도,경산시,47290,경상북도 경산시 압량읍 오목로 183,경상북도 경산시 압량읍 강서리 37-3,35.828659,128.795895,"비닐하우스, 경산식물농장",압량119안전센터,Y,Y,2018,0.5,3.5,65,경산소방서,053-819-6257,2021-11-30
"중산 지상 제036호",1,경상북도,경산시,47290,경상북도 경산시 성암로 26,경상북도 경산시 옥산동 884-1,35.822311,128.720682,우방아파트 후문 입구,중산119안전센터,N,Y,1994,0.5,3.5,65,경산소방서,053-819-6257,2021-11-30
"중산 지상 제080호",1,경상북도,경산시,47290,경상북도 경산시 중앙로4길 16-1,경상북도 경산시 사정동 61-3,35.819286,128.7308298,장산중학교 뒷길,중산119안전센터,Y,Y,2005,0.5,3.5,65,경산소방서,053-819-6257,2021-11-30
"중산 지상 제042호",1,경상북도,경산시,47290,경상북도 경산시 경산로 158,경상북도 경산시 사정동 22-6,35.822672,128.727583,"kt옆 , sk텔레콤 앞",중산119안전센터,Y,Y,2017,0.5,3.6,65,경산소방서,053-819-6257,2021-11-30
"중산 지상 제003호",1,경상북도,경산시,47290,경상북도 경산시 남천면 관방로 1184,경상북도 경산시 남천면 금곡리 324-1,35.75894038,128.745983,"남천면, 금곡1리 구판장 앞",중산119안전센터,N,Y,2015,0.5,3.6,65,경산소방서,053-819-6257,2021-11-30
"압량 지상 제034호",1,경상북도,경산시,47290,경상북도 경산시 압량읍 압독2로2길 21,경상북도 경산시 압량읍 신대리 456-1,35.840844,128.762955,샤브향 신대부적점,압량119안전센터,N,Y,2009,0.5,3.7,65,경산소방서,053-819-6257,2021-11-30
"중산 지상 제084호",1,경상북도,경산시,47290,경상북도 경산시 남천면 남천로 465,경상북도 경산시 남천면 삼성리 90-3,35.766544,128.726687,남천면사무소앞 도로상,중산119안전센터,N,Y,2021,0.5,3.7,65,경산소방서,053-819-6257,2021-11-30
"중산 지상 제069호",1,경상북도,경산시,47290,경상북도 경산시 강변서로 17,경상북도 경산시 옥곡동 832-1,35.810047,128.735865,부영3차아파트310동 측면,중산119안전센터,N,Y,2003,0.5,3.7,65,경산소방서,053-819-6257,2021-11-30
"중산 지상 제016호",1,경상북도,경산시,47290,경상북도 경산시 대학로13길 53,경상북도 경산시 정평동 168,35.838593,128.726986,"정평동, 한솔3차 정문앞",중산119안전센터,N,Y,2010,0.5,3.8,65,경산소방서,053-819-6257,2021-11-30
"중앙 지상 제137호",1,경상북도,경산시,47290,경상북도 경산시 중앙초등길6길 21,경상북도 경산시 중방동 855-30,35.824344,128.734389,"숙이언니앞, 수정식당 맞은편",중앙119안전센터,N,Y,2017,0.5,3.8,65,경산소방서,053-819-6257,2021-11-30
"중앙 지상 제168호",1,경상북도,경산시,47290,경상북도 경산시 장산로23길 25,경상북도 경산시 서상동 37,35.81841963,128.735181,옥천사우나 옆,중앙119안전센터,Y,Y,1979,0.5,3.8,65,경산소방서,053-819-6257,2021-11-30
"중앙 지상 제177호",1,경상북도,경산시,47290,경상북도 경산시 백천동로 5,경상북도 경산시 백천동 571-1,35.807253,128.739927,"백천동, 월드메르디앙 옆 경청로 상",중앙119안전센터,N,Y,2003,0.5,3.8,65,경산소방서,053-819-6257,2021-11-30
"중앙 지상 제071호",1,경상북도,경산시,47290,경상북도 경산시 삼풍로2길 3-10,경상북도 경산시 삼풍동 511-7,35.821673,128.755302,두리콩나물 굴해장국 옆,중앙119안전센터,N,Y,2008,0.5,3.8,65,경산소방서,053-819-6257,2021-11-30
"중산 지상 제038호",1,경상북도,경산시,47290,경상북도 경산시 성암로3길 18,경상북도 경산시 옥산동 370-5,35.823215,128.718714,"옥산동,새옥산교회 옆 아름드리원룸 3동 앞",중산119안전센터,N,Y,1994,0.5,3.8,65,경산소방서,053-819-6257,2021-11-30
"중앙 지상 제149호",1,경상북도,경산시,47290,경상북도 경산시 원효로 1,경상북도 경산시 중방동 870-7,35.823961,128.737832,경산오거리 종로빌딩 앞,중앙119안전센터,Y,Y,1979,0.5,3.9,65,경산소방서,053-819-6257,2021-11-30
"중앙 지상 제172호",1,경상북도,경산시,47290,경상북도 경산시 경청로221길 12,경상북도 경산시 백천동 571-2,35.804642,128.738609,월드메르디앙 뒤 강변도로상,중앙119안전센터,N,Y,2003,0.5,3.9,65,경산소방서,053-819-6257,2021-11-30
"중산 지상 제083호",1,경상북도,경산시,47290,경상북도 경산시 옥산로 138,경상북도 경산시 옥산동 185-3,35.827264,128.723582,"중산동, 펜타힐즈더샵 1차 108동 옆",중산119안전센터,Y,Y,2015,0.5,3.9,65,경산소방서,053-819-6257,2021-11-30
"중산 지상 제002호",1,경상북도,경산시,47290,경상북도 경산시 남천면 삼성역길 66-4,경상북도 경산시 남천면 삼성리 620,35.761641,128.723948,경부선 삼성보조구분소(변전소)앞,중산119안전센터,Y,Y,2021,0.5,3.9,65,경산소방서,053-819-6257,2021-11-30
"중산 지상 제005호",1,경상북도,경산시,47290,경상북도 경산시 남천면 신방길 1,경상북도 경산시 남천면 신방리 523,35.757221,128.775984,"남천면, 신방리 마을입구 삼거리",중산119안전센터,N,Y,2021,0.5,3.9,65,경산소방서,053-819-6257,2021-11-30
"중산 지상 제009호",1,경상북도,경산시,47290,경상북도 경산시 장산로4길 10,경상북도 경산시 옥곡동 85-1,35.814858,128.726683,신동아파밀리에 101동 뒤편 인도,중산119안전센터,N,Y,2010,0.5,3.9,65,경산소방서,053-819-6257,2021-11-30
"중산 지상 제021호",1,경상북도,경산시,47290,경상북도 경산시 옥산로 92,경상북도 경산시 옥산동 223-4,35.823532,128.725062,옥산로 명문주유소 맞은편,중산119안전센터,N,Y,2013,0.5,3.9,65,경산소방서,053-819-6257,2021-11-30
"진량 지상 제076호",1,경상북도,경산시,47290,경상북도 경산시 진량읍 공단6로 163,경상북도 경산시 진량읍 신상리 359-2,35.873597,128.824492,타이코AMP정문 서쪽,진량119안전센터,Y,Y,2015,0.5,4,65,경산소방서,053-819-6257,2021-11-30
"진량 지상 제077호",1,경상북도,경산시,47290,경상북도 경산시 진량읍 공단4로5길 52,경상북도 경산시 진량읍 신상리 1208,35.867991,128.822006,대원산업 사거리,진량119안전센터,Y,Y,2015,0.5,4,65,경산소방서,053-819-6257,2021-11-30
"진량 지상 제083호",1,경상북도,경산시,47290,경상북도 경산시 진량읍 속초길 80,경상북도 경산시 진량읍 속초리 365,35.8513399,128.830271,사거리 전신주옆,진량119안전센터,Y,Y,2018,0.5,4,65,경산소방서,053-819-6257,2021-11-30
"진량 지상 제084호",1,경상북도,경산시,47290,경상북도 경산시 진량읍 다문로 59,경상북도 경산시 진량읍 신상리 1225-4,35.87526031,128.817581,진량읍사무소건너 버스정류장옆,진량119안전센터,N,Y,2018,0.5,4,65,경산소방서,053-819-6257,2021-11-30
"진량 지상 제085호",1,경상북도,경산시,47290,경상북도 경산시 진량읍 공단로 497,경상북도 경산시 진량읍 신상리 1222-5,35.876045,128.818437,청도김씨문중교육관,진량119안전센터,N,Y,2018,0.5,4,65,경산소방서,053-819-6257,2021-11-30
"중앙 지상 제025호",1,경상북도,경산시,47290,경상북도 경산시 원효로 272,경상북도 경산시 평산동 234-3,35.81589002,128.765438,미래대 앞 삼거리,중앙119안전센터,N,Y,2001,0.5,4,65,경산소방서,053-819-6257,2021-11-30
"중앙 지상 제113호",1,경상북도,경산시,47290,경상북도 경산시 경안로 81,경상북도 경산시 삼남동 132-2,35.814787,128.738618,KCC 페인트 앞,중앙119안전센터,N,Y,1979,0.5,4,65,경산소방서,053-819-6257,2021-11-30
"중앙 지상 제130호",1,경상북도,경산시,47290,경상북도 경산시 장산로25길 34,경상북도 경산시 삼북동 279-1,35.821449,128.738791,동아할인마트 사거리,중앙119안전센터,Y,Y,2015,0.5,4,65,경산소방서,053-819-6257,2021-11-30
"중앙 지상 제131호",1,경상북도,경산시,47290,경상북도 경산시 서상길 93,경상북도 경산시 중방동 351-1,35.820058,128.733181,돼지골목 랜드로바앞 입구,중앙119안전센터,Y,Y,1979,0.5,4,65,경산소방서,053-819-6257,2021-11-30
"중앙 지상 제132호",1,경상북도,경산시,47290,경상북도 경산시 중앙로 82,경상북도 경산시 중방동 539-2,35.823246,128.735901,경산시장 입구,중앙119안전센터,Y,Y,2015,0.5,4,65,경산소방서,053-819-6257,2021-11-30
"중앙 지상 제133호",1,경상북도,경산시,47290,경상북도 경산시 원효로 28,경상북도 경산시 중방동 883-34,35.823799,128.7405104,시청앞 쉐보레 앞,중앙119안전센터,Y,Y,2015,0.5,4,65,경산소방서,053-819-6257,2021-11-30
"중앙 지상 제127호",1,경상북도,경산시,47290,경상북도 경산시 경안로38길 18,경상북도 경산시 중방동 864-23,35.825813,128.737979,아진다방 앞,중앙119안전센터,Y,Y,1979,0.5,4,65,경산소방서,053-819-6257,2021-11-30
"중앙 지상 제143호",1,경상북도,경산시,47290,경상북도 경산시 중방로 45,경상북도 경산시 중방동 824-6,35.830231,128.739204,경산아이나비 대리점 맞은편 인도,중앙119안전센터,N,Y,1994,0.5,4,65,경산소방서,053-819-6257,2021-11-30
"중앙 지상 제144호",1,경상북도,경산시,47290,경상북도 경산시 중앙로14길 24,경상북도 경산시 서상동 6-1,35.820532,128.734827,서상동 대흥철물앞,중앙119안전센터,N,Y,1994,0.5,4,65,경산소방서,053-819-6257,2021-11-30
"중앙 지상 제145호",1,경상북도,경산시,47290,경상북도 경산시 중앙로16길 25,경상북도 경산시 삼북동 266-14,35.821011,128.7361599,서울식육식당 앞,중앙119안전센터,N,Y,1994,0.5,4,65,경산소방서,053-819-6257,2021-11-30
"중앙 지상 제148호",1,경상북도,경산시,47290,경상북도 경산시 경안로 172,경상북도 경산시 중방동 879-1,35.822811,128.737723,픽시노래연습장 앞,중앙119안전센터,N,Y,1994,0.5,4,65,경산소방서,053-819-6257,2021-11-30
"중앙 지상 제129호",1,경상북도,경산시,47290,경상북도 경산시 장산로30길 18-1,경상북도 경산시 삼북동 45-2,35.81683998,128.740575,중앙센터 맞은편 골목 끝 지점 (삼북주공 서편길 끝),중앙119안전센터,Y,Y,2015,0.5,4,65,경산소방서,053-819-6257,2021-11-30
"중앙 지상 제152호",1,경상북도,경산시,47290,경상북도 경산시 경안로 26,경상북도 경산시 상방동 234-9,35.810324,128.740795,"상방동, 레이디 가구 앞",중앙119안전센터,N,Y,1996,0.5,4,65,경산소방서,053-819-6257,2021-11-30
"중앙 지상 제138호",1,경상북도,경산시,47290,경상북도 경산시 경안로27길 17,경상북도 경산시 삼북동 269-1,35.819374,128.736254,"경산구제창고, 경산아케이드 앞",중앙119안전센터,Y,Y,2018,0.5,4,65,경산소방서,053-819-6257,2021-11-30
"중앙 지상 제153호",1,경상북도,경산시,47290,경상북도 경산시 경청로222길 8,경상북도 경산시 백천동 588-1,35.803249,128.739496,신나리 아파트 108동 뒤편,중앙119안전센터,N,Y,2003,0.5,4,65,경산소방서,053-819-6257,2021-11-30
"중앙 지상 제156호",1,경상북도,경산시,47290,경상북도 경산시 중앙로16길 16,경상북도 경산시 중방동 874-22,35.821864,128.735825,"중방동,신용주방 그릇백화점 앞",중앙119안전센터,Y,Y,1996,0.5,4,65,경산소방서,053-819-6257,2021-11-30
"중앙 지상 제161호",1,경상북도,경산시,47290,경상북도 경산시 서상길 98,경상북도 경산시 중방동 353-10,35.820342,128.733261,영다방 앞,중앙119안전센터,Y,Y,1979,0.5,4,65,경산소방서,053-819-6257,2021-11-30
"중앙 지상 제160호",1,경상북도,경산시,47290,경상북도 경산시 중앙로 40,경상북도 경산시 중방동 337-1,35.821334,128.7319801,"중방동,중앙초등학교 사거리 현대체육사앞",중앙119안전센터,Y,Y,2017,0.5,4,65,경산소방서,053-819-6257,2021-11-30
"중앙 지상 제135호",1,경상북도,경산시,47290,경상북도 경산시 경안로 63,경상북도 경산시 삼남동 152-24,35.813256,128.738558,"삼남동, 경산 현대주유소 앞",중앙119안전센터,N,Y,2017,0.5,4,65,경산소방서,053-819-6257,2021-11-30
"중앙 지상 제170호",1,경상북도,경산시,47290,경상북도 경산시 백천동로 67,경상북도 경산시 백천동 581-2,35.802529,128.735754,동화리버빌 뒤 카페쿠시 앞,중앙119안전센터,N,Y,2003,0.5,4,65,경산소방서,053-819-6257,2021-11-30
"중앙 지상 제179호",1,경상북도,경산시,47290,경상북도 경산시 서상길 45,경상북도 경산시 서상동 66-3,35.816232,128.735652,"서상동, 준 종합창호 앞",중앙119안전센터,Y,Y,2021,0.5,4,65,경산소방서,053-819-6257,2021-11-30
"중앙 지상 제055호",1,경상북도,경산시,47290,경상북도 경산시 솔숲길15길 26,경상북도 경산시 평산동 702,35.807203,128.7603096,인터불고에서 백천동방면,중앙119안전센터,N,Y,2009,0.5,4,65,경산소방서,053-819-6257,2021-11-30
"압량 지상 제061호",1,경상북도,경산시,47290,경상북도 경산시 압량읍 가일길 142-1,경상북도 경산시 압량읍 가일리 94-1,35.842769,128.784683,"가일리 거송냉동ENG, 대국기계 올라가는 길,케이엔에스에너지 앞",압량119안전센터,Y,Y,2011,0.5,4,65,경산소방서,053-819-6257,2021-11-30
"중산 지상 제030호",1,경상북도,경산시,47290,경상북도 경산시 대학로 28,경상북도 경산시 정평동 198-3,35.834355,128.725708,"중산동, 차 부동산 앞",중산119안전센터,N,Y,1979,0.5,4,65,경산소방서,053-819-6257,2021-11-30
"중산 지상 제037호",1,경상북도,경산시,47290,경상북도 경산시 삼성현로15길 24,경상북도 경산시 옥산동 817-7,35.824997,128.718913,명인퍼니쳐가구점 앞,중산119안전센터,N,Y,1994,0.5,4,65,경산소방서,053-819-6257,2021-11-30
"중산 지상 제041호",1,경상북도,경산시,47290,경상북도 경산시 성암로12길 42,경상북도 경산시 옥산동 881-6,35.820044,128.724781,삼산아파트 정문앞,중산119안전센터,N,Y,1994,0.5,4,65,경산소방서,053-819-6257,2021-11-30
"중산 지상 제046호",1,경상북도,경산시,47290,경상북도 경산시 삼성현로15길 2,경상북도 경산시 옥산동 816-1,35.824265,128.716761,"옥산동, 쌍용자동차 맞은편 인도",중산119안전센터,N,Y,1994,0.5,4,65,경산소방서,053-819-6257,2021-11-30
"중산 지상 제048호",1,경상북도,경산시,47290,경상북도 경산시 성암로8길 19,경상북도 경산시 옥산동 871-9,35.821335,128.722931,장산초등학교 앞,중산119안전센터,N,Y,1994,0.5,4,65,경산소방서,053-819-6257,2021-11-30
"중산 지상 제056호",1,경상북도,경산시,47290,경상북도 경산시 성암로21길 37-14,경상북도 경산시 옥산동 726-1,35.828806,128.725889,경남신성아파트 101동 옆 도로,중산119안전센터,N,Y,1996,0.5,4,65,경산소방서,053-819-6257,2021-11-30
"중산 지상 제057호",1,경상북도,경산시,47290,경상북도 경산시 경산로34길 15-7,경상북도 경산시 옥산동 788-34,35.824481,128.728307,할매국밥 앞,중산119안전센터,N,Y,1996,0.5,4,65,경산소방서,053-819-6257,2021-11-30
"중산 지상 제058호",1,경상북도,경산시,47290,경상북도 경산시 강변서로 209,경상북도 경산시 옥산동 748-1,35.826351,128.729544,서부초등학교 담장 왕솥뚜껑 앞,중산119안전센터,Y,Y,1996,0.5,4,65,경산소방서,053-819-6257,2021-11-30
"중산 지상 제059호",1,경상북도,경산시,47290,경상북도 경산시 대학로13길 68,경상북도 경산시 정평동 96-2,35.838837,128.726405,"정평동, 한솔3차 뒤편",중산119안전센터,N,Y,1998,0.5,4,65,경산소방서,053-819-6257,2021-11-30
"중산 지상 제060호",1,경상북도,경산시,47290,경상북도 경산시 경산로40길 9,경상북도 경산시 옥산동 742-8,35.825912,128.727179,"옥산동, 생선92밥상 앞",중산119안전센터,Y,Y,2001,0.5,4,65,경산소방서,053-819-6257,2021-11-30
"중산 지상 제024호",1,경상북도,경산시,47290,경상북도 경산시 중산길 29,경상북도 경산시 중산동 256,35.832511,128.719092,유영모직앞,중산119안전센터,N,N,2015,0.5,4,65,경산소방서,053-819-6257,2021-11-30
"중산 지상 제085호",1,경상북도,경산시,47290,경상북도 경산시 남천면 대명길 68,경상북도 경산시 남천면 대명리 99,35.780818,128.719542,대명1리 마을회관 옆,중산119안전센터,N,Y,2015,0.5,4,65,경산소방서,053-819-6257,2021-11-30
"중산 지상 제086호",1,경상북도,경산시,47290,경상북도 경산시 강변서로 129,경상북도 경산시 사정동 301-75,35.819487,128.731535,"사정동,선진광고자재 앞",중산119안전센터,N,Y,2009,0.5,4,65,경산소방서,053-819-6257,2021-11-30
"중산 지상 제007호",1,경상북도,경산시,47290,경상북도 경산시 남천면 남천로 780,경상북도 경산시 남천면 협석리 223-2,35.786904,128.731175,"남천면,영남외대 외국인 교수촌 앞",중산119안전센터,N,Y,2015,0.5,4,65,경산소방서,053-819-6257,2021-11-30
"중산 지상 제022호",1,경상북도,경산시,47290,경상북도 경산시 남천면 남천로 798,경상북도 경산시 남천면 협석리 493,35.788795,128.732131,협석리 경로회관 앞,중산119안전센터,N,Y,2014,0.5,4,65,경산소방서,053-819-6257,2021-11-30
"중산 지상 제018호",1,경상북도,경산시,47290,경상북도 경산시 성암로5길 8,경상북도 경산시 옥산동 435,35.823342,128.720495,"옥산동, 옥산우체국 뒤편 서부1지구 복지회관",중산119안전센터,Y,Y,1979,0.5,4,65,경산소방서,053-819-6257,2021-11-30
"압량 지상 제001호",1,경상북도,경산시,47290,경상북도 경산시 압량읍 대학로 345,경상북도 경산시 압량읍 부적리 514-13,35.840229,128.758301,현대외과의원 앞,압량119안전센터,N,Y,2000,0.5,4.1,65,경산소방서,053-819-6257,2021-11-30
"중앙 지상 제134호",1,경상북도,경산시,47290,경상북도 경산시 경안로 103,경상북도 경산시 삼남동 45,35.816861,128.738432,회나무유통 사거리,중앙119안전센터,Y,Y,2017,0.5,4.1,65,경산소방서,053-819-6257,2021-11-30
"중앙 지상 제142호",1,경상북도,경산시,47290,경상북도 경산시 경안로29길 11,경상북도 경산시 삼북동 268-1,35.820058,128.736514,구 중앙소방파출소 의용소방대사무실앞,중앙119안전센터,N,Y,1993,0.5,4.1,65,경산소방서,053-819-6257,2021-11-30
"중앙 지상 제150호",1,경상북도,경산시,47290,경상북도 경산시 경안로30길 2,경상북도 경산시 삼북동 275-1,35.820086,128.738338,"중방동,현대약국 사거리",중앙119안전센터,N,Y,1994,0.5,4.1,65,경산소방서,053-819-6257,2021-11-30
"중앙 지상 제171호",1,경상북도,경산시,47290,경상북도 경산시 경청로221길 17,경상북도 경산시 백천동 572-1,35.803702,128.737326,동화리버빌 뒤 강변도로상,중앙119안전센터,N,Y,2003,0.5,4.1,65,경산소방서,053-819-6257,2021-11-30
"중앙 지상 제180호",1,경상북도,경산시,47290,경상북도 경산시 중방로 56,경상북도 경산시 중방동 832-1,35.829893,128.740072,"중방동,삼화자원 앞",중앙119안전센터,N,Y,2009,0.5,4.1,65,경산소방서,053-819-6257,2021-11-30
"중앙 지상 제181호",1,경상북도,경산시,47290,경상북도 경산시 남매로 100,경상북도 경산시 상방동 10,35.821117,128.743773,경기장 북쪽열린마당뒤,중앙119안전센터,N,Y,2021,0.5,4.1,65,경산소방서,053-819-6257,2021-11-30
"중앙 지상 제114호",1,경상북도,경산시,47290,경상북도 경산시 남매로 100,경상북도 경산시 상방동 10,35.821117,128.743773,주경기장 동쪽과 보조경기장 사이,중앙119안전센터,N,Y,2021,0.5,4.1,65,경산소방서,053-819-6257,2021-11-30
"중산 지상 제082호",1,경상북도,경산시,47290,경상북도 경산시 경산로 235,경상북도 경산시 중산동 595,35.828987,128.723539,"중산동, 새한택지개발지구 앞",중산119안전센터,Y,Y,2015,0.5,4.1,65,경산소방서,053-819-6257,2021-11-30
"중산 지상 제023호",1,경상북도,경산시,47290,경상북도 경산시 남천면 문화마을길 18,경상북도 경산시 남천면 삼성리 905-5,35.768441,128.7239499,남천면 주민자치센터 옆,중산119안전센터,Y,Y,2015,0.5,4.1,65,경산소방서,053-819-6257,2021-11-30
"중앙 지상 제173호",1,경상북도,경산시,47290,경상북도 경산시 백천동로 5,경상북도 경산시 백천동 571-1,35.807253,128.739927,부영초록마을 뒤 강변도로상,중앙119안전센터,N,Y,2003,0.5,4.2,65,경산소방서,053-819-6257,2021-11-30
"중앙 지상 제182호",1,경상북도,경산시,47290,경상북도 경산시 남매로 100,경상북도 경산시 상방동 10,35.821117,128.743773,경가장 북쪽 열린마당과 보조경기장 사이,중앙119안전센터,Y,Y,2021,0.5,4.2,65,경산소방서,053-819-6257,2021-11-30
"중산 지상 제001호",1,경상북도,경산시,47290,경상북도 경산시 선비길2길 33,경상북도 경산시 사정동 162-2,35.817986,128.726565,조일슈퍼앞,중산119안전센터,Y,Y,2017,0.5,4.2,65,경산소방서,053-819-6257,2021-11-30
"중산 지상 제053호",1,경상북도,경산시,47290,경상북도 경산시 중앙로 10,경상북도 경산시 사정동 50-2,35.81979988,128.729149,명성약국 앞,중산119안전센터,Y,Y,2015,0.5,4.2,65,경산소방서,053-819-6257,2021-11-30
"중산 지상 제006호",1,경상북도,경산시,47290,경상북도 경산시 남천면 신석길 28,경상북도 경산시 남천면 삼성리 64-7,35.771139,128.727305,"남천면,(주)송강옆 도로상",중산119안전센터,N,Y,2021,0.5,4.2,65,경산소방서,053-819-6257,2021-11-30
"중산 지상 제063호",1,경상북도,경산시,47290,경상북도 경산시 경산로 54,경상북도 경산시 옥곡동 827,35.814951,128.732518,"옥곡동, 옥곡초등학교 정문 앞",중산119안전센터,Y,Y,2003,0.5,4.2,65,경산소방서,053-819-6257,2021-11-30
"중산 지상 제029호",1,경상북도,경산시,47290,경상북도 경산시 중앙로 1-2,경상북도 경산시 사정동 36-15,35.819845,128.728188,"사정동,경산역 앞",중산119안전센터,Y,Y,2021,0.5,4.2,65,경산소방서,053-819-6257,2021-11-30
"중앙 지상 제011호",1,경상북도,경산시,47290,경상북도 경산시 박물관로1길 9,경상북도 경산시 사동 633-1,35.817572,128.760329,경산시법원 동편,중앙119안전센터,N,Y,2001,0.5,4.3,65,경산소방서,053-819-6257,2021-11-30
"중앙 지상 제176호",1,경상북도,경산시,47290,경상북도 경산시 백천동로 5,경상북도 경산시 백천동 571-1,35.807253,128.739927,"백천동, 부영104동 앞 사거리 상",중앙119안전센터,N,Y,2003,0.5,4.3,65,경산소방서,053-819-6257,2021-11-30
"중앙 지상 제115호",1,경상북도,경산시,47290,경상북도 경산시 남매로 100,경상북도 경산시 상방동 10,35.821117,128.743773,주경기장동쪽과 보조경기장 사이,중앙119안전센터,N,Y,2021,0.5,4.3,65,경산소방서,053-819-6257,2021-11-30
"중산 지상 제019호",1,경상북도,경산시,47290,경상북도 경산시 남천면 협석2길 102,경상북도 경산시 남천면 협석리 331-4,35.788682,128.722417,"남천면, 피노키오 가구공장 옆",중산119안전센터,Y,Y,2013,0.5,4.3,65,경산소방서,053-819-6257,2021-11-30
"중앙 지상 제038호",1,경상북도,경산시,47290,경상북도 경산시 백양로35길 1-3,경상북도 경산시 사동 666-6,35.811371,128.759125,"상쾌한 이비인후과, 휴대폰매장 건물 앞",중앙119안전센터,N,Y,2001,0.5,4.5,65,경산소방서,053-819-6257,2021-11-30
"진량 지상 제074호",1,경상북도,경산시,47290,경상북도 경산시 진량읍 대학로 1062,경상북도 경산시 진량읍 신상리 1130-12,35.875942,128.812276,진량치과,진량119안전센터,Y,Y,2015,0.5,4.5,65,경산소방서,053-819-6257,2021-11-30
"하양 지상 제126호",1,경상북도,경산시,47290,경상북도 경산시 하양읍 지식산업4로1길 22,경상북도 경산시 하양읍 대학리 1165,35.93201033,128.817429,씨엠글로벌,하양119안전센터,N,Y,2017,0.5,4.5,100,경산소방서,053-819-6257,2021-11-30
"중앙 지상 제006호",1,경상북도,경산시,47290,경상북도 경산시 박물관로1길 9,경상북도 경산시 사동 633-1,35.817572,128.760329,경산시법원 옆문 앞,중앙119안전센터,N,Y,2001,0.5,4.5,65,경산소방서,053-819-6257,2021-11-30
"중앙 지상 제030호",1,경상북도,경산시,47290,경상북도 경산시 박물관로7길 3-13,경상북도 경산시 사동 638-2,35.816597,128.762329,경산시법원에서 자인방향 200m 지점,중앙119안전센터,N,Y,2001,0.5,4.5,65,경산소방서,053-819-6257,2021-11-30
"중앙 지상 제031호",1,경상북도,경산시,47290,경상북도 경산시 박물관로7길 4-15,경상북도 경산시 사동 642-16,35.816317,128.763251,미래대기숙사 놀이터 앞,중앙119안전센터,N,Y,2001,0.5,4.5,65,경산소방서,053-819-6257,2021-11-30
"중앙 지상 제124호",1,경상북도,경산시,47290,경상북도 경산시 장산로 120,경상북도 경산시 삼북동 228-3,35.818259,128.738108,삼성자원 고물상 앞,중앙119안전센터,N,Y,1979,0.5,4.5,65,경산소방서,053-819-6257,2021-11-30
"중앙 지상 제174호",1,경상북도,경산시,47290,경상북도 경산시 백천동로 5,경상북도 경산시 백천동 571-1,35.807253,128.739927,부영101동앞 성암로 상,중앙119안전센터,N,Y,2003,0.5,4.5,65,경산소방서,053-819-6257,2021-11-30
"중산 지상 제043호",1,경상북도,경산시,47290,경상북도 경산시 성암로 42,경상북도 경산시 옥산동 864,35.822774,128.722366,대구은행사거리 앞,중산119안전센터,N,Y,1994,0.5,4.5,65,경산소방서,053-819-6257,2021-11-30
"중산 지상 제045호",1,경상북도,경산시,47290,경상북도 경산시 옥산로 69,경상북도 경산시 옥산동 876-7,35.821442,128.7256197,새제자들 교회 옆,중산119안전센터,N,Y,1994,0.5,4.5,65,경산소방서,053-819-6257,2021-11-30
"중산 지상 제035호",1,경상북도,경산시,47290,경상북도 경산시 펜타힐즈2로 57,경상북도 경산시 중산동 635-1,35.828731,128.719771,택시승강장 옆,중산119안전센터,Y,Y,2019,0.5,4.5,65,경산소방서,053-819-6257,2021-11-30
"중앙 지상 제035호",1,경상북도,경산시,47290,경상북도 경산시 백양로38길 4,경상북도 경산시 사동 676-3,35.810104,128.760308,"하얀꽃 공원 맞은편, 착한한우 앞",중앙119안전센터,N,Y,2001,0.5,4.6,65,경산소방서,053-819-6257,2021-11-30
"중앙 지상 제067호",1,경상북도,경산시,47290,경상북도 경산시 솔숲길3길 4-8,경상북도 경산시 사동 235,35.807245,128.754593,주택 정면 도로건너,중앙119안전센터,N,Y,2009,0.5,4.7,65,경산소방서,053-819-6257,2021-11-30
"자인 지상 제041호",1,경상북도,경산시,47290,경상북도 경산시 용성면 내촌길 119,경상북도 경산시 용성면 내촌리 458-3,35.818504,128.894981,마을회관 앞,자인119안전센터,Y,Y,2009,0.5,4.7,65,경산소방서,053-819-6257,2021-11-30
"중산 지상 제017호",1,경상북도,경산시,47290,경상북도 경산시 선비길2길 18-1,경상북도 경산시 옥곡동 30-3,35.816593,128.728287,횡단보도 옆,중산119안전센터,N,Y,2012,0.5,4.7,65,경산소방서,053-819-6257,2021-11-30
"중앙 지상 제037호",1,경상북도,경산시,47290,경상북도 경산시 백양로38길 20,경상북도 경산시 사동 675-12,35.809353,128.7591899,"best house원룸 앞, 휴먼시아 105동 앞",중앙119안전센터,N,Y,2001,0.5,4.8,65,경산소방서,053-819-6257,2021-11-30
"중앙 지상 제056호",1,경상북도,경산시,47290,경상북도 경산시 솔숲길12길 3-17,경상북도 경산시 사동 389,35.80562962,128.758917,미래로->삼성현로 방면 삼거리 인근,중앙119안전센터,N,Y,2009,0.5,4.8,65,경산소방서,053-819-6257,2021-11-30
"중앙 지상 제064호",1,경상북도,경산시,47290,경상북도 경산시 솔숲길8길 3-1,경상북도 경산시 사동 333,35.806828,128.756466,평산초등학교 주차장 도로 건너,중앙119안전센터,N,Y,2009,0.5,4.9,65,경산소방서,053-819-6257,2021-11-30
"중앙 지상 제065호",1,경상북도,경산시,47290,경상북도 경산시 솔숲길 47,경상북도 경산시 사동 188,35.807592,128.756948,평산초 정문 우측 병설유치원 맞은편,중앙119안전센터,N,Y,2009,0.5,4.9,65,경산소방서,053-819-6257,2021-11-30
"중앙 지상 제066호",1,경상북도,경산시,47290,경상북도 경산시 솔숲길8길 4-10,경상북도 경산시 사동 289,35.806894,128.755203,사동2지구 2공원,중앙119안전센터,N,Y,2009,0.5,4.9,65,경산소방서,053-819-6257,2021-11-30
"중앙 지상 제063호",1,경상북도,경산시,47290,경상북도 경산시 솔숲길 58,경상북도 경산시 사동 364,35.806408,128.7583304,"평산초등학교, 제일건설중기",중앙119안전센터,N,Y,2009,0.5,4.9,65,경산소방서,053-819-6257,2021-11-30
"압량 지상 제021호",1,경상북도,경산시,47290,경상북도 경산시 압량읍 연지길 136,경상북도 경산시 압량읍 인안리 48-16,35.86500009,128.787765,유성전기온돌판넬 건너편,압량119안전센터,N,Y,2005,0.5,5,65,경산소방서,053-819-6257,2021-11-30
"진량 지상 제073호",1,경상북도,경산시,47290,경상북도 경산시 진량읍 공단2로 33,경상북도 경산시 진량읍 신상리 368-2,35.871894,128.822951,천리마카센터,진량119안전센터,Y,Y,2014,0.5,5,65,경산소방서,053-819-6257,2021-11-30
"진량 지상 제075호",1,경상북도,경산시,47290,경상북도 경산시 진량읍 공단2로 1,경상북도 경산시 진량읍 신상리 470-1,35.871745,128.819214,농협공단지점,진량119안전센터,Y,Y,2015,0.5,5,65,경산소방서,053-819-6257,2021-11-30
"하양 지상 제128호",1,경상북도,경산시,47290,,경상북도 경산시 하양읍 대학리 1177,35.931595,128.8220148,삼거리 가로등점멸기 79 옆,하양119안전센터,N,Y,2017,0.5,5,150,경산소방서,053-819-6257,2021-11-30
"하양 지상 제130호",1,경상북도,경산시,47290,,경상북도 경산시 하양읍 대학리 1186,35.93000529,128.8170151,장미사,하양119안전센터,N,Y,2017,0.5,5,150,경산소방서,053-819-6257,2021-11-30
"하양 지상 제131호",1,경상북도,경산시,47290,경상북도 경산시 하양읍 지식산업4로6길 4,경상북도 경산시 하양읍 대학리 981-140,35.930003,128.819636,조형철강,하양119안전센터,Y,Y,2017,0.5,5,150,경산소방서,053-819-6257,2021-11-30
"하양 지상 제127호",1,경상북도,경산시,47290,경상북도 경산시 하양읍 지식산업로 14,경상북도 경산시 하양읍 대학리 1206,35.934343,128.812695,광림특장,하양119안전센터,N,Y,2017,0.5,5,150,경산소방서,053-819-6257,2021-11-30
"하양 지상 제122호",1,경상북도,경산시,47290,경상북도 경산시 하양읍 지식산업로 14,경상북도 경산시 하양읍 대학리 1206,35.934343,128.812695,동산글로벌,하양119안전센터,N,N,2017,0.5,5,150,경산소방서,053-819-6257,2021-11-30
"하양 지상 제124호",1,경상북도,경산시,47290,경상북도 경산시 하양읍 지식산업로4길 60,경상북도 경산시 하양읍 대학리 1144,35.932757,128.824252,수도건기,하양119안전센터,N,Y,2017,0.5,5,150,경산소방서,053-819-6257,2021-11-30
"하양 지상 제115호",1,경상북도,경산시,47290,경상북도 경산시 하양읍 지식산업5로4,경상북도 경산시 하양읍 대학리 1083,35.934517,128.825024,경북테크노파크 무선전력전송기술센터,하양119안전센터,N,Y,2017,0.5,5,100,경산소방서,053-819-6257,2021-11-30
"하양 지상 제112호",1,경상북도,경산시,47290,경상북도 경산시 하양읍 지식산업5로8,경상북도 경산시 하양읍 대학리 1195,35.935065,128.825012,경북테크노파크 철도차량융합부품기술센터,하양119안전센터,N,Y,2017,0.5,5,100,경산소방서,053-819-6257,2021-11-30
"하양 지상 제108호",1,경상북도,경산시,47290,경상북도 경산시 하양읍 지식산업5로30,경상북도 경산시 하양읍 대학리 1195,35.936619,128.825287,대일포장,하양119안전센터,N,Y,2017,0.5,5,100,경산소방서,053-819-6257,2021-11-30
"하양 지상 제106호",1,경상북도,경산시,47290,경상북도 경산시 하양읍 지식산업1로98,경상북도 경산시 하양읍 대학리 1038,35.936793,128.826263,효림,하양119안전센터,N,Y,2017,0.5,5,100,경산소방서,053-819-6257,2021-11-30
"하양 지상 제107호",1,경상북도,경산시,47290,경상북도 경산시 하양읍 지식산업1로112,경상북도 경산시 하양읍 대학리 1198,35.937183,128.827871,대진 건너편,하양119안전센터,N,Y,2017,0.5,5,100,경산소방서,053-819-6257,2021-11-30
"하양 지상 제109호",1,경상북도,경산시,47290,경상북도 경산시 하양읍 지식산업6로37,경상북도 경산시 하양읍 대학리 1041,35.936429,128.827805,하나알엔디,하양119안전센터,N,Y,2017,0.5,5,100,경산소방서,053-819-6257,2021-11-30
"하양 지상 제110호",1,경상북도,경산시,47290,,경상북도 경산시 하양읍 대학리 1193,35.9380903,128.8203618,거성인더스 인근 삼거리(오른쪽),하양119안전센터,Y,Y,2017,0.5,5,150,경산소방서,053-819-6257,2021-11-30
"하양 지상 제113호",1,경상북도,경산시,47290,,경상북도 경산시 하양읍 대학리 1196,35.93699178,128.8286007,(주)여주티앤씨,하양119안전센터,N,Y,2017,0.5,5,100,경산소방서,053-819-6257,2021-11-30
"하양 지상 제132호",1,경상북도,경산시,47290,경상북도 경산시 하양읍 지식산업4로6길 33,경상북도 경산시 하양읍 대학리 1178,35.930608,128.8218104,호수건설기계정비,하양119안전센터,Y,Y,2017,0.5,5,100,경산소방서,053-819-6257,2021-11-30
"하양 지상 제125호",1,경상북도,경산시,47290,,경상북도 경산시 하양읍 대학리 산 33,35.932606,128.814804,대구방사,하양119안전센터,N,Y,2017,0.5,5,150,경산소방서,053-819-6257,2021-11-30
"중앙 지상 제112호",1,경상북도,경산시,47290,경상북도 경산시 남매공원로1길 9,경상북도 경산시 계양동 717,35.833725,128.741853,c-space 편의점 앞,중앙119안전센터,N,Y,2017,0.5,5,65,경산소방서,053-819-6257,2021-11-30
"압량 지상 제040호",1,경상북도,경산시,47290,경상북도 경산시 압량읍 압독2로8길 8,경상북도 경산시 압량읍 신대리 507,35.840536,128.765625,퍼스트헤어 옆,압량119안전센터,N,Y,2009,0.5,5,65,경산소방서,053-819-6257,2021-11-30
"하양 지상 제123호",1,경상북도,경산시,47290,경상북도 경산시 하양읍 지식산업로4길 48,경상북도 경산시 하양읍 대학리 1142,35.932602,128.821966,에코홈스,하양119안전센터,N,Y,2018,0.5,5,150,경산소방서,053-819-6257,2021-11-30
"하양 지상 제121호",1,경상북도,경산시,47290,,경상북도 경산시 하양읍 대학리 1214,35.93318911,128.8263508,GS편의점 뒤편,하양119안전센터,N,Y,2018,0.5,5,80,경산소방서,053-819-6257,2021-11-30
"하양 지상 제120호",1,경상북도,경산시,47290,경상북도 경산시 하양읍 지식산업로 125,경상북도 경산시 하양읍 대학리 1091,35.934784,128.826571,경북테크노파크,하양119안전센터,N,Y,2018,0.5,5,100,경산소방서,053-819-6257,2021-11-30
"하양 지상 제111호",1,경상북도,경산시,47290,,경상북도 경산시 하양읍 대학리 1200,35.93546397,128.822148,스페이스 앞,하양119안전센터,N,Y,2018,0.5,5,150,경산소방서,053-819-6257,2021-11-30
"하양 지상 제114호",1,경상북도,경산시,47290,,경상북도 경산시 하양읍 대학리 1072,35.93509373,128.8228296,교차로 전신주,하양119안전센터,N,Y,2018,0.5,5,80,경산소방서,053-819-6257,2021-11-30
"하양 지상 제118호",1,경상북도,경산시,47290,경상북도 경산시 하양읍 지식산업로 14,경상북도 경산시 하양읍 대학리 1205,35.934343,128.812695,지식산업로70건물 건너편,하양119안전센터,N,Y,2018,0.5,5,200,경산소방서,053-819-6257,2021-11-30
"하양 지상 제116호",1,경상북도,경산시,47290,경상북도 경산시 하양읍 지식산업로 14,경상북도 경산시 하양읍 대학리 1205,35.934343,128.812695,교차로 신호등,하양119안전센터,N,Y,2018,0.5,5,350,경산소방서,053-819-6257,2021-11-30
"하양 지상 제117호",1,경상북도,경산시,47290,경상북도 경산시 하양읍 지식산업로36,경상북도 경산시 하양읍 대학리 1094,35.933797,128.816441,기승 앞,하양119안전센터,N,Y,2018,0.5,5,200,경산소방서,053-819-6257,2021-11-30
"하양 지상 제119호",1,경상북도,경산시,47290,,경상북도 경산시 하양읍 대학리 1121,35.93350678,128.8216609,로보프린트 건물 앞 150m,하양119안전센터,N,Y,2018,0.5,5,80,경산소방서,053-819-6257,2021-11-30
"압량 지상 제041호",1,경상북도,경산시,47290,경상북도 경산시 압량읍 압독3로2길 12-3,경상북도 경산시 압량읍 신대리 570,35.83985984,128.765094,신대세탁 앞,압량119안전센터,N,Y,2009,0.5,5,65,경산소방서,053-819-6257,2021-11-30
"하양 지상 제086호",1,경상북도,경산시,47290,경상북도 경산시 와촌면 금송로 463,경상북도 경산시 와촌면 소월리 산 1,35.950461,128.835852,와촌초교 앞,하양119안전센터,Y,Y,2019,0.5,5,65,경산소방서,053-819-6257,2021-11-30
"중앙 지상 제008호",1,경상북도,경산시,47290,경상북도 경산시 원효로42길 6,경상북도 경산시 사동 561-6,35.818438,128.758102,진미실비 앞,중앙119안전센터,N,Y,2001,0.5,5,65,경산소방서,053-819-6257,2021-11-30
"중앙 지상 제036호",1,경상북도,경산시,47290,경상북도 경산시 백양로38길 8,경상북도 경산시 사동 675-19,35.809784,128.760075,"59호 안쪽, 둥지짬뽕 앞",중앙119안전센터,Y,Y,2001,0.5,5,65,경산소방서,053-819-6257,2021-11-30
"중앙 지상 제151호",1,경상북도,경산시,47290,경상북도 경산시 경안로31길 19,경상북도 경산시 서상동 10,35.820519,128.735758,"서상동, 오색약손 맞은편,(구)시장 경비초소 앞",중앙119안전센터,N,Y,1996,0.5,5,65,경산소방서,053-819-6257,2021-11-30
"중앙 지상 제155호",1,경상북도,경산시,47290,경상북도 경산시 경안로 277,경상북도 경산시 중방동 226-3,35.832204,128.734925,"중방동, 홈플러스옆",중앙119안전센터,N,Y,2010,0.5,5,65,경산소방서,053-819-6257,2021-11-30
"중앙 지상 제157호",1,경상북도,경산시,47290,경상북도 경산시 중앙로16길 7,경상북도 경산시 중방동 876-3,35.822628,128.736023,"중방동, 개미분식 앞",중앙119안전센터,N,Y,1996,0.5,5,65,경산소방서,053-819-6257,2021-11-30
"중앙 지상 제158호",1,경상북도,경산시,47290,경상북도 경산시 장산로 143,경상북도 경산시 삼북동 282-44,35.818729,128.740707,"삼북동,중앙119안전센터앞",중앙119안전센터,N,Y,2002,0.5,5,65,경산소방서,053-819-6257,2021-11-30
"중앙 지상 제159호",1,경상북도,경산시,47290,경상북도 경산시 경안로43길 35,경상북도 경산시 중방동 297-21,35.826754,128.732611,"중방동,안성주택 40호 앞",중앙119안전센터,N,N,2003,0.5,5,65,경산소방서,053-819-6257,2021-11-30
"중앙 지상 제154호",1,경상북도,경산시,47290,경상북도 경산시 중앙초등길 55,경상북도 경산시 중방동 414-2,35.826366,128.733433,중방주민센터 놀이터 앞,중앙119안전센터,Y,Y,2017,0.5,5,65,경산소방서,053-819-6257,2021-11-30
"중앙 지상 제128호",1,경상북도,경산시,47290,경상북도 경산시 서상길 72,경상북도 경산시 서상동 24-1,35.819017,128.734641,강변보양탕 옆,중앙119안전센터,Y,Y,2015,0.5,5,65,경산소방서,053-819-6257,2021-11-30
"중앙 지상 제162호",1,경상북도,경산시,47290,경상북도 경산시 경청로222길 8,경상북도 경산시 백천동 588-1,35.803249,128.739496,신나리아파트104동 뒤편,중앙119안전센터,N,Y,2003,0.5,5,65,경산소방서,053-819-6257,2021-11-30
"중앙 지상 제163호",1,경상북도,경산시,47290,경상북도 경산시 경청로216길 17,경상북도 경산시 백천동 591-2,35.801133,128.740121,삼성현중학교 앞,중앙119안전센터,N,Y,2003,0.5,5,65,경산소방서,053-819-6257,2021-11-30
"중앙 지상 제164호",1,경상북도,경산시,47290,경상북도 경산시 경청로218길 6-11,경상북도 경산시 백천동 595-3,35.800732,128.7386001,삼성현중 옆 동서가구 앞,중앙119안전센터,N,Y,2003,0.5,5,65,경산소방서,053-819-6257,2021-11-30
"중앙 지상 제165호",1,경상북도,경산시,47290,경상북도 경산시 경청로222길 8,경상북도 경산시 백천동 588-1,35.803249,128.739496,신나리아파트 103동 육교옆,중앙119안전센터,N,Y,2003,0.5,5,65,경산소방서,053-819-6257,2021-11-30
"중앙 지상 제166호",1,경상북도,경산시,47290,경상북도 경산시 경청로222길 8,경상북도 경산시 백천동 588-1,35.803249,128.739496,신나리아파트 101동 횡단보도 앞,중앙119안전센터,N,Y,2003,0.5,5,65,경산소방서,053-819-6257,2021-11-30
"중앙 지상 제167호",1,경상북도,경산시,47290,경상북도 경산시 경청로219길 3-4,경상북도 경산시 백천동 578-10,35.802834,128.7374504,"백천상가, 김가람헤어 미용실 앞",중앙119안전센터,N,Y,2003,0.5,5,65,경산소방서,053-819-6257,2021-11-30
"중앙 지상 제169호",1,경상북도,경산시,47290,경상북도 경산시 경청로215길 8,경상북도 경산시 백천동 587-8,35.801209,128.736711,백천실내테니스장 맞은편,중앙119안전센터,N,Y,2003,0.5,5,65,경산소방서,053-819-6257,2021-11-30
"중앙 지상 제175호",1,경상북도,경산시,47290,경상북도 경산시 백천동로 5,경상북도 경산시 백천동 571-1,35.807253,128.739927,"백천동, 부영103동 앞 성암로 상",중앙119안전센터,N,Y,2003,0.5,5,65,경산소방서,053-819-6257,2021-11-30
"하양 지상 제129호",1,경상북도,경산시,47290,,경상북도 경산시 하양읍 대학리 1183,35.93018075,128.814906,알파신소재,하양119안전센터,N,Y,2017,0.5,5,150,경산소방서,053-819-6257,2021-11-30
"하양 지상 제042호",1,경상북도,경산시,47290,,경상북도 경산시 하양읍 양지리 240-2,35.91921109,128.8124731,하주초 정문,하양119안전센터,N,Y,1999,0.5,5,100,경산소방서,053-819-6257,2021-11-30
"압량 지상 제051호",1,경상북도,경산시,47290,경상북도 경산시 압량읍 가일길3길 14,경상북도 경산시 압량읍 신대리 65-8,35.83765014,128.773572,"이편한세상, 한신휴플러스 삼거리",압량119안전센터,Y,Y,2009,0.5,5,65,경산소방서,053-819-6257,2021-11-30
"압량 지상 제054호",1,경상북도,경산시,47290,경상북도 경산시 압량읍 압독4로1길 20-12,경상북도 경산시 압량읍 신대리 660,35.838061,128.765593,화랑로에서 압독로 삼거리,압량119안전센터,N,Y,2009,0.5,5,65,경산소방서,053-819-6257,2021-11-30
"압량 지상 제063호",1,경상북도,경산시,47290,경상북도 경산시 압량읍 가야로 81,경상북도 경산시 압량읍 용암리 123-11,35.855812,128.775713,용암리 공판장 옆,압량119안전센터,Y,Y,2017,0.5,5,65,경산소방서,053-819-6257,2021-11-30
"중산 지상 제028호",1,경상북도,경산시,47290,경상북도 경산시 대학로16길 53,경상북도 경산시 정평동 250-21,35.829236,128.730808,정평초등학교 옆 금강카센터 앞,중산119안전센터,Y,Y,2017,0.5,5,65,경산소방서,053-819-6257,2021-11-30
"중산 지상 제054호",1,경상북도,경산시,47290,경상북도 경산시 경산로44길 42,경상북도 경산시 옥산동 735-1,35.828015,128.7297104,"정평동, 현대아파트 104동 뒤편",중산119안전센터,N,Y,1996,0.5,5,65,경산소방서,053-819-6257,2021-11-30
"중산 지상 제055호",1,경상북도,경산시,47290,경상북도 경산시 경산로44길 11,경상북도 경산시 옥산동 731-1,35.827644,128.726483,공영주차장 건너편 버스정류장 주변,중산119안전센터,Y,Y,1996,0.5,5,65,경산소방서,053-819-6257,2021-11-30
"중산 지상 제061호",1,경상북도,경산시,47290,경상북도 경산시 강변서로 91,경상북도 경산시 옥곡동 819-3,35.816401,128.732594,서옥교 부근 강변도로상,중산119안전센터,N,Y,2003,0.5,5,65,경산소방서,053-819-6257,2021-11-30
"중산 지상 제062호",1,경상북도,경산시,47290,경상북도 경산시 경산로16길 8,경상북도 경산시 옥곡동 818-1,35.816176,128.731896,신생당 약업사 옆,중산119안전센터,N,Y,2003,0.5,5,65,경산소방서,053-819-6257,2021-11-30
"중산 지상 제072호",1,경상북도,경산시,47290,경상북도 경산시 경산로 54,경상북도 경산시 옥곡동 827,35.814951,128.732518,옥곡총등학교 운동장앞,중산119안전센터,N,Y,2021,0.5,5,65,경산소방서,053-819-6257,2021-11-30
"중산 지상 제064호",1,경상북도,경산시,47290,경상북도 경산시 강변서로 83,경상북도 경산시 옥곡동 819-9,35.815648,128.732764,옥곡초등옆 강변쪽,중산119안전센터,N,Y,2003,0.5,5,65,경산소방서,053-819-6257,2021-11-30
"중산 지상 제065호",1,경상북도,경산시,47290,경상북도 경산시 경산로 40,경상북도 경산시 옥곡동 828,35.813925,128.733913,한일유앤아이 102동 옆 인도상,중산119안전센터,N,Y,2003,0.5,5,65,경산소방서,053-819-6257,2021-11-30
"중산 지상 제070호",1,경상북도,경산시,47290,경상북도 경산시 경산로 26,경상북도 경산시 옥곡동 829-1,35.812992,128.734774,부영2차아파트 201동 측면,중산119안전센터,N,Y,2003,0.5,5,65,경산소방서,053-819-6257,2021-11-30
"중산 지상 제068호",1,경상북도,경산시,47290,경상북도 경산시 강변서로 17,경상북도 경산시 옥곡동 832-1,35.810047,128.735865,부영3차 311동옆 측면,중산119안전센터,N,Y,2003,0.5,5,65,경산소방서,053-819-6257,2021-11-30
"중산 지상 제015호",1,경상북도,경산시,47290,경상북도 경산시 장산로4길 10,경상북도 경산시 옥곡동 85-1,35.814858,128.726683,태왕아너스고은 입구 좌측,중산119안전센터,Y,Y,2010,0.5,5,65,경산소방서,053-819-6257,2021-11-30
"중산 지상 제014호",1,경상북도,경산시,47290,경상북도 경산시 장산로4길 10,경상북도 경산시 옥곡동 85-1,35.814858,128.726683,신동아118동 외벽앞 인도,중산119안전센터,N,Y,2010,0.5,5,65,경산소방서,053-819-6257,2021-11-30
"중산 지상 제066호",1,경상북도,경산시,47290,경상북도 경산시 경산로 26,경상북도 경산시 옥곡동 829-1,35.812992,128.734774,부영2차 202동 옆 인도상,중산119안전센터,N,Y,2003,0.5,5,65,경산소방서,053-819-6257,2021-11-30
"중산 지상 제071호",1,경상북도,경산시,47290,경상북도 경산시 경산로 40,경상북도 경산시 옥곡동 828,35.813925,128.733913,"옥곡동,한일유앤아이 101동 측면",중산119안전센터,N,Y,2003,0.5,5,65,경산소방서,053-819-6257,2021-11-30
"중산 지상 제004호",1,경상북도,경산시,47290,경상북도 경산시 남천면 관방로 1150,경상북도 경산시 남천면 금곡리 207-4,35.758312,128.749547,"남천면, 금곡보건진료소 옆",중산119안전센터,N,Y,2015,0.5,5,65,경산소방서,053-819-6257,2021-11-30
"중산 지상 제073호",1,경상북도,경산시,47290,경상북도 경산시 경산로 67,경상북도 경산시 옥곡동 823-1,35.814983,128.731369,"옥곡동,옥곡초등학교 맞은편 남산카 앞",중산119안전센터,Y,Y,2003,0.5,5,65,경산소방서,053-819-6257,2021-11-30
"중산 지상 제074호",1,경상북도,경산시,47290,경상북도 경산시 경산로15길 3,경상북도 경산시 옥곡동 814-14,35.815804,128.730644,LG25시 편의점  옆,중산119안전센터,N,Y,2003,0.5,5,65,경산소방서,053-819-6257,2021-11-30
"중산 지상 제075호",1,경상북도,경산시,47290,경상북도 경산시 경산로13길 12,경상북도 경산시 옥곡동 813-2,35.814903,128.730363,서부유치원 앞,중산119안전센터,N,Y,2003,0.5,5,65,경산소방서,053-819-6257,2021-11-30
"중산 지상 제076호",1,경상북도,경산시,47290,경상북도 경산시 경산로13길 23,경상북도 경산시 옥곡동 820-5,35.81371015,128.730675,주신교회옆,중산119안전센터,N,Y,2003,0.5,5,65,경산소방서,053-819-6257,2021-11-30
"중산 지상 제077호",1,경상북도,경산시,47290,경상북도 경산시 경산로 25,경상북도 경산시 옥곡동 830,35.812218,128.731655,동화프라임빌 105동 뒤,중산119안전센터,Y,Y,2003,0.5,5,65,경산소방서,053-819-6257,2021-11-30
"중산 지상 제078호",1,경상북도,경산시,47290,경상북도 경산시 경산로 21,경상북도 경산시 옥곡동 831-1,35.810063,128.733656,부영조은마을 101동 앞,중산119안전센터,Y,Y,2003,0.5,5,65,경산소방서,053-819-6257,2021-11-30
"중산 지상 제079호",1,경상북도,경산시,47290,경상북도 경산시 경산로 21,경상북도 경산시 옥곡동 831-1,35.810063,128.733656,"옥곡동, 부영107동 뒤편",중산119안전센터,Y,Y,2003,0.5,5,65,경산소방서,053-819-6257,2021-11-30
"중앙 지상 제146호",1,경상북도,경산시,47290,경상북도 경산시 경안로 193,경상북도 경산시 중방동 862-1,35.824683,128.736861,경산안과 앞,중앙119안전센터,Y,Y,2017,0.5,5.5,65,경산소방서,053-819-6257,2021-11-30
"압량 지상 제052호",1,경상북도,경산시,47290,경상북도 경산시 압량읍 압독로 38-8,경상북도 경산시 압량읍 신대리 709,35.836646,128.768538,이편한세상 경산신대아파트 103동 앞,압량119안전센터,Y,Y,2009,0.5,5.5,65,경산소방서,053-819-6257,2021-11-30
"압량 지상 제055호",1,경상북도,경산시,47290,경상북도 경산시 압량읍 압독4로1길 6,경상북도 경산시 압량읍 신대리 663,35.837876,128.765914,화랑로에서 감못둑길 삼거리,압량119안전센터,N,Y,2009,0.5,5.5,65,경산소방서,053-819-6257,2021-11-30
"중앙 지상 제178호",1,경상북도,경산시,47290,경상북도 경산시 남매로4길 16-1,경상북도 경산시 상방동 209-2,35.811745,128.742376,마을회관 옆,중앙119안전센터,Y,Y,1998,0.5,6,65,경산소방서,053-819-6257,2021-11-30
"중앙 지상 제004호",1,경상북도,경산시,47290,경상북도 경산시 원효로 361,경상북도 경산시 평산동 173-1,35.813019,128.774409,대구한의대 입구 맞은편 승강장 앞,중앙119안전센터,N,Y,1999,0.5,6.1,65,경산소방서,053-819-6257,2021-11-30
"중앙 지상 제005호",1,경상북도,경산시,47290,경상북도 경산시 진등길 3,경상북도 경산시 남방동 215-5,35.811612,128.787914,동부꽃농원 옆 버스정류장 앞,중앙119안전센터,N,Y,2000,0.5,6.5,65,경산소방서,053-819-6257,2021-11-30
"하양 지상 제087호",1,경상북도,경산시,47290,경상북도 경산시 하양읍 문화로17길 1,경상북도 경산시 하양읍 도리리 181-43,35.916506,128.813119,서사리 삼거리지나 폐건물 전봇대 옆,하양119안전센터,Y,Y,2019,0.5,7,100,경산소방서,053-819-6257,2021-11-30
"하양 지상 제088호",1,경상북도,경산시,47290,경상북도 경산시 하양읍 문화로 36,경상북도 경산시 하양읍 금락리 123-10,35.912354,128.812387,행정복지센터 앞,하양119안전센터,Y,Y,2019,0.5,7,100,경산소방서,053-819-6257,2021-11-30
"진량 지상 제062호",1,경상북도,경산시,47290,경상북도 경산시 진량읍 공단5로30길 21,경상북도 경산시 진량읍 신제리 608,35.857283,128.836719,대원리 휴먼플러스 동쪽방향 도로상,진량119안전센터,N,Y,2010,0.5,10,65,경산소방서,053-819-6257,2021-11-30
"중산 지상 제026호",1,경상북도,경산시,47290,경상북도 경산시 남천면 신석길 15,경상북도 경산시 남천면 대명리 374-3,35.771257,128.725705,국도변 버스승강장 옆 인도,중산119안전센터,N,Y,2016,0.5,4,150,경산소방서,053-819-6257,2021-11-30
"중산 지상 제027호",1,경상북도,경산시,47290,경상북도 경산시 남천면 대명길 92,경상북도 경산시 남천면 대명리 90,35.782445,128.720412,경산농협하나로마트대명지소,중산119안전센터,Y,Y,2017,1,1,65,경산소방서,053-819-6257,2021-11-30
"자인 지상 제058호",1,경상북도,경산시,47290,경상북도 경산시 자인면 단북길 101,경상북도 경산시 자인면 단북리 127-3,35.832573,128.819794,한라원룸,자인119안전센터,N,Y,2021,1,2.5,65,경산소방서,053-819-6257,2021-11-30
"자인 지상 제060호",1,경상북도,경산시,47290,경상북도 경산시 용성면 귀방우길 36-5,경상북도 경산시 용성면 매남리 1284,35.811832,128.938126,매남3리 마을회관,자인119안전센터,N,Y,2019,1,2.5,65,경산소방서,053-819-6257,2021-11-30
"중앙 지상 제109호",1,경상북도,경산시,47290,경상북도 경산시 남매공원로1길 1,경상북도 경산시 계양동 713,35.832814,128.7415799600,원룸단지,중앙119안전센터,Y,Y,2018,1,3,65,경산소방서,053-819-6257,2021-11-30
"중앙 지상 제110호",1,경상북도,경산시,47290,,경상북도 경산시 계양동 821,35.83147704,128.7439898,원룸단지,중앙119안전센터,Y,Y,2018,1,3,65,경산소방서,053-819-6257,2021-11-30
"중산 지상 제034호",1,경상북도,경산시,47290,경상북도 경산시 펜타힐즈2로 60,경상북도 경산시 중산동 643,35.828233,128.722238,대백마트,중산119안전센터,Y,Y,2019,1.5,3,65,경산소방서,053-819-6257,2021-11-30
"진량 지상 제086호",1,경상북도,경산시,47290,경상북도 경산시 진량읍 대구대로 386,경상북도 경산시 진량읍 평사리 1216,35.888798,128.858551,평사리 버스정류장 건너,진량119안전센터,N,Y,2018,1.5,3,65,경산소방서,053-819-6257,2021-11-30
"진량 지상 제087호",1,경상북도,경산시,47290,경상북도 경산시 진량읍 선항길 8,경상북도 경산시 진량읍 선화리 454-1,35.874624,128.805055,경산 진량 도시개발 구역 내,진량119안전센터,Y,Y,2018,1.5,3,65,경산소방서,053-819-6257,2021-11-30
"진량 지상 제090호",1,경상북도,경산시,47290,경상북도 경산시 진량읍 선항길 24,경상북도 경산시 진량읍 선화리 438-2,35.873887,128.806874,경산 진량 도시개발 구역 내,진량119안전센터,Y,Y,2018,1.5,3.5,65,경산소방서,053-819-6257,2021-11-30
"진량 지상 제089호",1,경상북도,경산시,47290,경상북도 경산시 진량읍 선항길 24,경상북도 경산시 진량읍 선화리 438-2,35.873887,128.806874,경산 진량 도시개발 구역 내,진량119안전센터,Y,Y,2018,1.5,3.7,65,경산소방서,053-819-6257,2021-11-30
"진량 지상 제092호",1,경상북도,경산시,47290,경상북도 경산시 진량읍 선항길 24,경상북도 경산시 진량읍 선화리 438-2,35.873887,128.806874,경산 진량 도시개발 구역 내,진량119안전센터,Y,Y,2018,1.5,3.8,65,경산소방서,053-819-6257,2021-11-30
"진량 지상 제088호",1,경상북도,경산시,47290,경상북도 경산시 진량읍 선항길 24,경상북도 경산시 진량읍 선화리 438-2,35.873887,128.806874,경산 진량 도시개발 구역 내,진량119안전센터,Y,Y,2018,1.5,4,65,경산소방서,053-819-6257,2021-11-30
